Wavecontrol MonitEM data
Date: 04/23/2024 16:57:04
MonitEM Serial: 13MT0312
Probe serial: 13WP040356
Frecuencies: 100kHz-8GHz
Units: V/m
Date,Time,Value,GPGGA,gps_time,lat,N/S,lon,E/O,fix,number_satellites,diution,height,M,geoid_height,M,,*CRC,GPGSA,A,3D_fix,PRN,PRN,PRN,PRN,PRN,PRN,PRN,PRN,PRN,PRN,PRN,PRN,PDOP,HDOP,VDOP*CRC
2024/04/23,16:17:12,8.57,$GPGGA,,,,,,0,,,,,,,,*66,$GPGSA,A,1,,,,,,,,,,,,,,,*1E
2024/04/23,16:17:13,9.21,$GPGGA,,,,,,0,,,,,,,,*66,$GPGSA,A,1,,,,,,,,,,,,,,,*1E
2024/04/23,16:17:13,9.22,$GPGGA,191707.8,,,,,0,,,,,,,,*79,$GPGSA,A,1,,,,,,,,,,,,,,,*1E
2024/04/23,16:17:14,9.23,$GPGGA,191709.1,2046.385050,S,04132.245996,W,1,07,1.2,265.9,M,-5.0,M,,*4B,$GPGSA,A,3,05,07,09,14,17,20,22,,,,,,2.3,1.2,2.0*38
2024/04/23,16:17:15,9.20,$GPGGA,191716.6,2046.387108,S,04132.245178,W,1,08,1.1,268.0,M,-5.0,M,,*4C,$GPGSA,A,3,05,07,09,14,17,20,22,30,,,,,2.2,1.1,1.9*33
2024/04/23,16:17:16,9.20,$GPGGA,191717.7,2046.387343,S,04132.244818,W,1,08,1.1,267.8,M,-5.0,M,,*48,$GPGSA,A,3,05,07,09,14,17,20,22,30,,,,,2.2,1.1,1.9*33
2024/04/23,16:17:17,9.18,$GPGGA,191718.6,2046.387301,S,04132.245547,W,1,08,1.1,266.9,M,-5.0,M,,*46,$GPGSA,A,3,05,07,09,14,17,20,22,30,,,,,2.2,1.1,1.9*33
2024/04/23,16:17:18,9.20,$GPGGA,191719.6,2046.388638,S,04132.244492,W,1,08,1.1,267.6,M,-5.0,M,,*41,$GPGSA,A,3,05,07,09,14,17,20,22,30,,,,,2.2,1.1,1.9*33
2024/04/23,16:17:19,9.18,$GPGGA,191720.0,2046.390111,S,04132.241742,W,1,08,1.0,262.9,M,-5.0,M,,*48,$GPGSA,A,3,05,07,09,14,17,20,22,30,,,,,2.2,1.0,1.9*32
2024/04/23,16:17:19,9.21,$GPGGA,191721.0,2046.389243,S,04132.242453,W,1,07,1.0,263.8,M,-5.0,M,,*4A,$GPGSA,A,3,05,07,09,14,17,20,22,,,,,,2.2,1.0,1.9*31
2024/04/23,16:17:20,9.19,$GPGGA,191722.0,2046.388550,S,04132.243023,W,1,07,1.0,263.1,M,-5.0,M,,*46,$GPGSA,A,3,05,07,09,14,17,20,22,,,,,,2.2,1.0,1.9*31
2024/04/23,16:17:21,9.18,$GPGGA,191723.0,2046.388428,S,04132.243108,W,1,07,1.0,263.2,M,-5.0,M,,*42,$GPGSA,A,3,05,07,09,14,17,20,22,,,,,,2.2,1.0,1.9*31
2024/04/23,16:17:22,9.18,$GPGGA,191724.0,2046.388299,S,04132.243289,W,1,07,1.0,263.0,M,-5.0,M,,*41,$GPGSA,A,3,05,07,09,14,17,20,22,,,,,,2.2,1.0,1.9*31
2024/04/23,16:17:23,9.18,$GPGGA,191725.0,2046.388113,S,04132.243429,W,1,07,1.0,262.7,M,-5.0,M,,*4B,$GPGSA,A,3,05,07,09,14,17,20,22,,,,,,2.2,1.0,1.9*31
2024/04/23,16:17:24,9.20,$GPGGA,191726.0,2046.388009,S,04132.243558,W,1,07,1.0,262.3,M,-5.0,M,,*41,$GPGSA,A,3,05,07,09,14,17,20,22,,,,,,2.2,1.0,1.9*31
2024/04/23,16:17:25,9.21,$GPGGA,191727.0,2046.388057,S,04132.243638,W,1,08,1.0,262.1,M,-5.0,M,,*43,$GPGSA,A,3,05,07,09,14,17,20,22,30,,,,,2.0,1.0,1.7*3E
2024/04/23,16:17:26,9.19,$GPGGA,191728.0,2046.387811,S,04132.243899,W,1,08,1.0,262.1,M,-5.0,M,,*4C,$GPGSA,A,3,05,07,09,14,17,20,22,30,,,,,2.0,1.0,1.7*3E
2024/04/23,16:17:27,9.18,$GPGGA,191729.0,2046.387783,S,04132.243846,W,1,08,1.0,261.5,M,-5.0,M,,*4C,$GPGSA,A,3,05,07,09,14,17,20,22,30,,,,,2.0,1.0,1.7*3E
2024/04/23,16:17:28,9.17,$GPGGA,191730.0,2046.387679,S,04132.243910,W,1,08,1.0,261.5,M,-5.0,M,,*42,$GPGSA,A,3,05,07,09,14,17,20,22,30,,,,,2.0,1.0,1.7*3E
2024/04/23,16:17:29,9.17,$GPGGA,191731.0,2046.387694,S,04132.243825,W,1,08,1.0,261.2,M,-5.0,M,,*40,$GPGSA,A,3,05,07,09,14,17,20,22,30,,,,,2.0,1.0,1.7*3E
2024/04/23,16:17:30,9.14,$GPGGA,191732.0,2046.387741,S,04132.243783,W,1,08,1.0,261.1,M,-5.0,M,,*4A,$GPGSA,A,3,05,07,09,14,17,20,22,30,,,,,2.0,1.0,1.7*3E
2024/04/23,16:17:31,9.17,$GPGGA,191733.0,2046.387746,S,04132.243771,W,1,08,1.0,261.1,M,-5.0,M,,*41,$GPGSA,A,3,05,07,09,14,17,20,22,30,,,,,2.0,1.0,1.7*3E
2024/04/23,16:17:32,9.16,$GPGGA,191734.0,2046.387762,S,04132.243766,W,1,08,1.0,261.1,M,-5.0,M,,*46,$GPGSA,A,3,05,07,09,14,17,20,22,30,,,,,2.0,1.0,1.7*3E
2024/04/23,16:17:33,9.19,$GPGGA,191735.0,2046.387770,S,04132.243764,W,1,08,1.0,261.1,M,-5.0,M,,*46,$GPGSA,A,3,05,07,09,14,17,20,22,30,,,,,2.0,1.0,1.7*3E
2024/04/23,16:17:34,9.17,$GPGGA,191736.0,2046.387773,S,04132.243762,W,1,08,1.0,261.0,M,-5.0,M,,*41,$GPGSA,A,3,05,07,09,14,17,20,22,30,,,,,2.0,1.0,1.7*3E
2024/04/23,16:17:35,9.16,$GPGGA,191737.0,2046.387775,S,04132.243762,W,1,07,1.0,261.0,M,-5.0,M,,*49,$GPGSA,A,3,05,09,14,17,20,22,30,,,,,,2.0,1.0,1.7*39
2024/04/23,16:17:36,9.19,$GPGGA,191738.0,2046.387775,S,04132.243761,W,1,07,1.0,261.0,M,-5.0,M,,*45,$GPGSA,A,3,05,09,14,17,20,22,30,,,,,,2.0,1.0,1.7*39
2024/04/23,16:17:37,9.21,$GPGGA,191739.0,2046.387776,S,04132.243760,W,1,07,1.0,261.0,M,-5.0,M,,*46,$GPGSA,A,3,05,09,14,17,20,22,30,,,,,,2.0,1.0,1.7*39
2024/04/23,16:17:38,9.20,$GPGGA,191740.0,2046.387777,S,04132.243759,W,1,07,1.0,261.0,M,-5.0,M,,*43,$GPGSA,A,3,05,09,14,17,20,22,30,,,,,,2.0,1.0,1.7*39
2024/04/23,16:17:39,9.19,$GPGGA,191741.0,2046.387777,S,04132.243758,W,1,07,1.0,261.0,M,-5.0,M,,*43,$GPGSA,A,3,05,09,14,17,20,22,30,,,,,,2.0,1.0,1.7*39
2024/04/23,16:17:40,9.20,$GPGGA,191742.0,2046.387777,S,04132.243758,W,1,07,1.0,261.0,M,-5.0,M,,*40,$GPGSA,A,3,05,09,14,17,20,22,30,,,,,,2.0,1.0,1.7*39
2024/04/23,16:17:41,9.20,$GPGGA,191743.0,2046.387778,S,04132.243757,W,1,07,1.0,261.0,M,-5.0,M,,*41,$GPGSA,A,3,05,09,14,17,20,22,30,,,,,,2.0,1.0,1.7*39
2024/04/23,16:17:42,9.19,$GPGGA,191744.0,2046.387778,S,04132.243756,W,1,07,1.0,261.0,M,-5.0,M,,*47,$GPGSA,A,3,05,09,14,17,20,22,30,,,,,,2.0,1.0,1.7*39
2024/04/23,16:17:43,9.19,$GPGGA,191745.0,2046.387780,S,04132.243756,W,1,07,1.0,261.0,M,-5.0,M,,*41,$GPGSA,A,3,05,09,14,17,20,22,30,,,,,,2.0,1.0,1.7*39
2024/04/23,16:17:44,9.18,$GPGGA,191746.0,2046.387782,S,04132.243755,W,1,07,1.0,261.0,M,-5.0,M,,*43,$GPGSA,A,3,05,09,14,17,20,22,30,,,,,,2.0,1.0,1.7*39
2024/04/23,16:17:45,9.20,$GPGGA,191747.0,2046.387784,S,04132.243754,W,1,07,1.0,261.0,M,-5.0,M,,*45,$GPGSA,A,3,05,09,14,17,20,22,30,,,,,,2.0,1.0,1.7*39
2024/04/23,16:17:46,9.20,$GPGGA,191748.0,2046.387786,S,04132.243753,W,1,07,1.0,261.0,M,-5.0,M,,*4F,$GPGSA,A,3,05,09,14,17,20,22,30,,,,,,2.0,1.0,1.7*39
2024/04/23,16:17:47,9.19,$GPGGA,191749.0,2046.387788,S,04132.243752,W,1,07,1.0,261.0,M,-5.0,M,,*41,$GPGSA,A,3,05,09,14,17,20,22,30,,,,,,2.0,1.0,1.7*39
2024/04/23,16:17:48,9.19,$GPGGA,191750.0,2046.387790,S,04132.243752,W,1,07,1.0,261.0,M,-5.0,M,,*40,$GPGSA,A,3,05,09,14,17,20,22,30,,,,,,2.0,1.0,1.7*39
2024/04/23,16:17:49,9.18,$GPGGA,191751.0,2046.387792,S,04132.243750,W,1,07,1.0,261.0,M,-5.0,M,,*41,$GPGSA,A,3,05,09,14,17,20,22,30,,,,,,2.0,1.0,1.7*39
2024/04/23,16:17:50,9.19,$GPGGA,191752.0,2046.387793,S,04132.243750,W,1,07,1.0,261.0,M,-5.0,M,,*43,$GPGSA,A,3,05,09,14,17,20,22,30,,,,,,2.0,1.0,1.7*39
2024/04/23,16:17:51,9.19,$GPGGA,191753.0,2046.387794,S,04132.243750,W,1,07,1.0,261.0,M,-5.0,M,,*45,$GPGSA,A,3,05,09,14,17,20,22,30,,,,,,2.0,1.0,1.7*39
2024/04/23,16:17:52,9.19,$GPGGA,191754.0,2046.387796,S,04132.243750,W,1,07,1.0,261.0,M,-5.0,M,,*40,$GPGSA,A,3,05,09,14,17,20,22,30,,,,,,2.0,1.0,1.7*39
2024/04/23,16:17:53,9.18,$GPGGA,191755.0,2046.387797,S,04132.243749,W,1,07,1.0,261.0,M,-5.0,M,,*48,$GPGSA,A,3,05,09,14,17,20,22,30,,,,,,2.0,1.0,1.7*39
2024/04/23,16:17:54,9.19,$GPGGA,191756.0,2046.387798,S,04132.243748,W,1,07,1.0,261.0,M,-5.0,M,,*45,$GPGSA,A,3,05,09,14,17,20,22,30,,,,,,2.0,1.0,1.7*39
2024/04/23,16:17:55,9.17,$GPGGA,191757.0,2046.387799,S,04132.243747,W,1,07,1.0,261.0,M,-5.0,M,,*4A,$GPGSA,A,3,05,09,14,17,20,22,30,,,,,,2.0,1.0,1.7*39
2024/04/23,16:17:56,9.21,$GPGGA,191758.0,2046.387800,S,04132.243746,W,1,07,1.0,261.0,M,-5.0,M,,*4B,$GPGSA,A,3,05,09,14,17,20,22,30,,,,,,2.0,1.0,1.7*39
2024/04/23,16:17:57,9.22,$GPGGA,191759.0,2046.387803,S,04132.243744,W,1,07,1.0,261.0,M,-5.0,M,,*4B,$GPGSA,A,3,05,09,14,17,20,22,30,,,,,,2.0,1.0,1.7*39
2024/04/23,16:17:58,9.20,$GPGGA,191800.0,2046.387804,S,04132.243743,W,1,07,1.0,261.0,M,-5.0,M,,*48,$GPGSA,A,3,05,09,14,17,20,22,30,,,,,,2.0,1.0,1.7*39
2024/04/23,16:17:59,9.15,$GPGGA,191801.0,2046.387806,S,04132.243742,W,1,07,1.0,261.0,M,-5.0,M,,*4A,$GPGSA,A,3,05,09,14,17,20,22,30,,,,,,2.0,1.0,1.7*39
2024/04/23,16:18:00,9.17,$GPGGA,191802.0,2046.387807,S,04132.243741,W,1,07,1.0,261.0,M,-5.0,M,,*4B,$GPGSA,A,3,05,09,14,17,20,22,30,,,,,,2.0,1.0,1.7*39
2024/04/23,16:18:01,9.19,$GPGGA,191803.0,2046.387809,S,04132.243739,W,1,07,1.0,261.0,M,-5.0,M,,*4B,$GPGSA,A,3,05,09,14,17,20,22,30,,,,,,2.0,1.0,1.7*39
2024/04/23,16:18:02,9.14,$GPGGA,191804.0,2046.387810,S,04132.243738,W,1,07,1.0,261.0,M,-5.0,M,,*45,$GPGSA,A,3,05,09,14,17,20,22,30,,,,,,2.0,1.0,1.7*39
2024/04/23,16:18:03,9.18,$GPGGA,191805.0,2046.387811,S,04132.243737,W,1,07,1.0,261.0,M,-5.0,M,,*4A,$GPGSA,A,3,05,09,14,17,20,22,30,,,,,,2.0,1.0,1.7*39
2024/04/23,16:18:04,9.18,$GPGGA,191806.0,2046.387812,S,04132.243736,W,1,07,1.0,261.0,M,-5.0,M,,*4B,$GPGSA,A,3,05,09,14,17,20,22,30,,,,,,2.0,1.0,1.7*39
2024/04/23,16:18:05,9.18,$GPGGA,191807.0,2046.387813,S,04132.243735,W,1,07,1.0,261.0,M,-5.0,M,,*48,$GPGSA,A,3,05,09,14,17,20,22,30,,,,,,2.0,1.0,1.7*39
2024/04/23,16:18:06,9.17,$GPGGA,191808.0,2046.387814,S,04132.243733,W,1,07,1.0,261.0,M,-5.0,M,,*46,$GPGSA,A,3,05,09,14,17,20,22,30,,,,,,2.0,1.0,1.7*39
2024/04/23,16:18:07,9.18,$GPGGA,191809.0,2046.387814,S,04132.243733,W,1,07,1.0,261.0,M,-5.0,M,,*47,$GPGSA,A,3,05,09,14,17,20,22,30,,,,,,2.0,1.0,1.7*39
2024/04/23,16:18:08,9.17,$GPGGA,191810.0,2046.387814,S,04132.243733,W,1,07,1.0,261.0,M,-5.0,M,,*4F,$GPGSA,A,3,05,09,14,17,20,22,30,,,,,,2.0,1.0,1.7*39
2024/04/23,16:18:09,9.18,$GPGGA,191811.0,2046.387813,S,04132.243733,W,1,07,1.0,261.0,M,-5.0,M,,*49,$GPGSA,A,3,05,09,14,17,20,22,30,,,,,,2.2,1.0,1.9*35
2024/04/23,16:18:10,9.16,$GPGGA,191812.0,2046.387812,S,04132.243733,W,1,07,1.0,261.0,M,-5.0,M,,*4B,$GPGSA,A,3,05,09,14,17,20,22,30,,,,,,2.2,1.0,1.9*35
2024/04/23,16:18:11,9.17,$GPGGA,191813.0,2046.387810,S,04132.243733,W,1,07,1.0,260.9,M,-5.0,M,,*40,$GPGSA,A,3,05,09,14,17,20,22,30,,,,,,2.2,1.0,1.9*35
2024/04/23,16:18:12,9.18,$GPGGA,191814.0,2046.387809,S,04132.243733,W,1,07,1.0,260.9,M,-5.0,M,,*4F,$GPGSA,A,3,05,09,14,17,20,22,30,,,,,,2.2,1.0,1.9*35
2024/04/23,16:18:13,9.17,$GPGGA,191815.0,2046.387807,S,04132.243733,W,1,07,1.0,260.9,M,-5.0,M,,*40,$GPGSA,A,3,05,09,14,17,20,22,30,,,,,,2.2,1.0,1.9*35
2024/04/23,16:18:14,9.17,$GPGGA,191816.0,2046.387806,S,04132.243732,W,1,07,1.0,260.9,M,-5.0,M,,*43,$GPGSA,A,3,05,09,14,17,20,22,30,,,,,,2.2,1.0,1.9*35
2024/04/23,16:18:15,9.16,$GPGGA,191817.0,2046.387803,S,04132.243732,W,1,07,1.0,260.9,M,-5.0,M,,*47,$GPGSA,A,3,05,09,14,17,20,22,30,,,,,,2.2,1.0,1.9*35
2024/04/23,16:18:16,9.17,$GPGGA,191818.0,2046.387801,S,04132.243732,W,1,07,1.0,260.9,M,-5.0,M,,*4A,$GPGSA,A,3,05,09,14,17,20,22,30,,,,,,2.2,1.0,1.9*35
2024/04/23,16:18:17,9.08,$GPGGA,191819.0,2046.387799,S,04132.243731,W,1,07,1.0,260.9,M,-5.0,M,,*46,$GPGSA,A,3,05,09,14,17,20,22,30,,,,,,2.2,1.0,1.9*35
2024/04/23,16:18:18,9.16,$GPGGA,191820.0,2046.387748,S,04132.243677,W,1,08,1.0,261.0,M,-5.0,M,,*44,$GPGSA,A,3,05,07,09,14,17,20,22,30,,,,,2.0,1.0,1.7*3E
2024/04/23,16:18:19,9.19,$GPGGA,191821.0,2046.387520,S,04132.243198,W,1,09,1.0,260.8,M,-5.0,M,,*47,$GPGSA,A,3,05,07,09,13,14,17,20,22,30,,,,2.0,1.0,1.7*3C
2024/04/23,16:18:20,9.20,$GPGGA,191822.0,2046.387113,S,04132.243013,W,1,09,1.0,260.9,M,-5.0,M,,*43,$GPGSA,A,3,05,07,09,13,14,17,20,22,30,,,,2.0,1.0,1.7*3C
2024/04/23,16:18:21,9.20,$GPGGA,191823.0,2046.386399,S,04132.242678,W,1,09,1.0,261.1,M,-5.0,M,,*40,$GPGSA,A,3,05,07,09,13,14,17,20,22,30,,,,2.0,1.0,1.7*3C
2024/04/23,16:18:22,9.20,$GPGGA,191824.0,2046.385803,S,04132.241770,W,1,09,1.0,261.1,M,-5.0,M,,*46,$GPGSA,A,3,05,07,09,13,14,17,20,22,30,,,,2.0,1.0,1.7*3C
2024/04/23,16:18:23,9.19,$GPGGA,191825.0,2046.385085,S,04132.240699,W,1,09,1.0,261.1,M,-5.0,M,,*46,$GPGSA,A,3,05,07,09,13,14,17,20,22,30,,,,2.0,1.0,1.7*3C
2024/04/23,16:18:24,9.21,$GPGGA,191826.0,2046.384354,S,04132.239535,W,1,09,1.0,261.1,M,-5.0,M,,*40,$GPGSA,A,3,05,07,09,13,14,17,20,22,30,,,,2.0,1.0,1.7*3C
2024/04/23,16:18:25,9.20,$GPGGA,191827.0,2046.383494,S,04132.238662,W,1,09,1.0,261.4,M,-5.0,M,,*48,$GPGSA,A,3,05,07,09,13,14,17,20,22,30,,,,2.0,1.0,1.7*3C
2024/04/23,16:18:26,9.12,$GPGGA,191828.0,2046.383060,S,04132.238127,W,1,09,1.0,261.9,M,-5.0,M,,*43,$GPGSA,A,3,05,07,09,13,14,17,20,22,30,,,,2.0,1.0,1.7*3C
2024/04/23,16:18:27,9.17,$GPGGA,191829.0,2046.382411,S,04132.237326,W,1,09,1.0,262.3,M,-5.0,M,,*44,$GPGSA,A,3,05,07,09,13,14,17,20,22,30,,,,2.0,1.0,1.7*3C
2024/04/23,16:18:28,9.16,$GPGGA,191830.0,2046.381781,S,04132.236435,W,1,09,1.0,262.3,M,-5.0,M,,*41,$GPGSA,A,3,05,07,09,13,14,17,20,22,30,,,,2.0,1.0,1.7*3C
2024/04/23,16:18:29,9.12,$GPGGA,191831.0,2046.381125,S,04132.235396,W,1,09,1.0,262.3,M,-5.0,M,,*45,$GPGSA,A,3,05,07,09,13,14,17,20,22,30,,,,2.0,1.0,1.7*3C
2024/04/23,16:18:30,9.19,$GPGGA,191832.0,2046.380472,S,04132.234381,W,1,09,1.0,262.2,M,-5.0,M,,*46,$GPGSA,A,3,05,07,09,13,14,17,20,22,30,,,,2.0,1.0,1.7*3C
2024/04/23,16:18:31,9.19,$GPGGA,191833.0,2046.379758,S,04132.233088,W,1,09,1.0,262.1,M,-5.0,M,,*44,$GPGSA,A,3,05,07,09,13,14,17,20,22,30,,,,2.0,1.0,1.7*3C
2024/04/23,16:18:32,9.20,$GPGGA,191834.0,2046.379093,S,04132.231693,W,1,09,1.0,262.2,M,-5.0,M,,*4E,$GPGSA,A,3,05,07,09,13,14,17,20,22,30,,,,2.0,1.0,1.7*3C
2024/04/23,16:18:33,9.21,$GPGGA,191835.0,2046.378245,S,04132.230131,W,1,09,1.1,262.2,M,-5.0,M,,*48,$GPGSA,A,3,05,07,09,13,14,17,20,22,30,,,,2.1,1.1,1.8*33
2024/04/23,16:18:34,9.18,$GPGGA,191836.0,2046.377289,S,04132.228522,W,1,09,1.1,262.2,M,-5.0,M,,*4B,$GPGSA,A,3,05,07,09,13,14,17,20,22,30,,,,2.1,1.1,1.8*33
2024/04/23,16:18:35,9.17,$GPGGA,191837.0,2046.376289,S,04132.226863,W,1,09,1.0,262.2,M,-5.0,M,,*4C,$GPGSA,A,3,05,07,09,13,14,17,20,22,30,,,,2.0,1.0,1.7*3C
2024/04/23,16:18:36,9.20,$GPGGA,191838.0,2046.375198,S,04132.225213,W,1,09,1.0,262.2,M,-5.0,M,,*4D,$GPGSA,A,3,05,07,09,13,14,17,20,22,30,,,,2.0,1.0,1.7*3C
2024/04/23,16:18:37,9.19,$GPGGA,191839.0,2046.374142,S,04132.223387,W,1,09,1.0,262.0,M,-5.0,M,,*42,$GPGSA,A,3,05,07,09,13,14,17,20,22,30,,,,2.0,1.0,1.7*3C
2024/04/23,16:18:38,9.19,$GPGGA,191840.0,2046.372938,S,04132.221528,W,1,09,1.0,261.8,M,-5.0,M,,*45,$GPGSA,A,3,05,07,09,13,14,17,20,22,30,,,,2.0,1.0,1.7*3C
2024/04/23,16:18:39,9.19,$GPGGA,191841.0,2046.371658,S,04132.219570,W,1,09,1.0,261.8,M,-5.0,M,,*48,$GPGSA,A,3,05,07,09,13,14,17,20,22,30,,,,2.0,1.0,1.7*3C
2024/04/23,16:18:40,9.19,$GPGGA,191842.0,2046.370432,S,04132.217543,W,1,09,1.0,261.6,M,-5.0,M,,*44,$GPGSA,A,3,05,07,09,13,14,17,20,22,30,,,,2.0,1.0,1.7*3C
2024/04/23,16:18:41,9.18,$GPGGA,191843.0,2046.369225,S,04132.215501,W,1,09,1.0,261.5,M,-5.0,M,,*4A,$GPGSA,A,3,05,07,09,13,14,17,20,22,30,,,,2.0,1.0,1.7*3C
2024/04/23,16:18:42,9.20,$GPGGA,191844.0,2046.367901,S,04132.213274,W,1,09,1.0,261.5,M,-5.0,M,,*4D,$GPGSA,A,3,05,07,09,13,14,17,20,22,30,,,,2.0,1.0,1.7*3C
2024/04/23,16:18:43,9.21,$GPGGA,191845.0,2046.366585,S,04132.210989,W,1,09,1.0,261.3,M,-5.0,M,,*41,$GPGSA,A,3,05,07,09,13,14,17,20,22,30,,,,2.0,1.0,1.7*3C
2024/04/23,16:18:44,9.19,$GPGGA,191846.0,2046.365253,S,04132.208771,W,1,09,1.0,261.2,M,-5.0,M,,*4C,$GPGSA,A,3,05,07,09,13,14,17,20,22,30,,,,2.0,1.0,1.7*3C
2024/04/23,16:18:45,9.20,$GPGGA,191847.0,2046.363848,S,04132.206420,W,1,09,1.0,261.2,M,-5.0,M,,*42,$GPGSA,A,3,05,07,09,13,14,17,20,22,30,,,,2.0,1.0,1.7*3C
2024/04/23,16:18:46,9.21,$GPGGA,191848.0,2046.362282,S,04132.204192,W,1,09,1.0,261.4,M,-5.0,M,,*48,$GPGSA,A,3,05,07,09,13,14,17,20,22,30,,,,2.0,1.0,1.7*3C
2024/04/23,16:18:47,9.19,$GPGGA,191849.0,2046.360751,S,04132.201779,W,1,09,1.0,261.4,M,-5.0,M,,*46,$GPGSA,A,3,05,07,09,13,14,17,20,22,30,,,,2.0,1.0,1.7*3C
2024/04/23,16:18:48,9.20,$GPGGA,191850.0,2046.359241,S,04132.199334,W,1,09,1.0,261.6,M,-5.0,M,,*4D,$GPGSA,A,3,05,07,09,13,14,17,20,22,30,,,,2.0,1.0,1.7*3C
2024/04/23,16:18:49,9.18,$GPGGA,191851.0,2046.357709,S,04132.196848,W,1,09,1.0,261.5,M,-5.0,M,,*47,$GPGSA,A,3,05,07,09,13,14,17,20,22,30,,,,2.0,1.0,1.7*3C
2024/04/23,16:18:50,9.22,$GPGGA,191852.0,2046.356152,S,04132.194294,W,1,09,1.0,261.4,M,-5.0,M,,*45,$GPGSA,A,3,05,07,09,13,14,17,20,22,30,,,,2.0,1.0,1.7*3C
2024/04/23,16:18:51,9.22,$GPGGA,191853.0,2046.354469,S,04132.191905,W,1,09,1.0,261.5,M,-5.0,M,,*4C,$GPGSA,A,3,05,07,09,13,14,17,20,22,30,,,,2.0,1.0,1.7*3C
2024/04/23,16:18:52,9.20,$GPGGA,191854.0,2046.352811,S,04132.189469,W,1,09,1.0,261.2,M,-5.0,M,,*47,$GPGSA,A,3,05,07,09,13,14,17,20,22,30,,,,2.0,1.0,1.7*3C
2024/04/23,16:18:53,9.19,$GPGGA,191855.0,2046.350942,S,04132.187231,W,1,09,1.0,261.1,M,-5.0,M,,*45,$GPGSA,A,3,05,07,09,13,14,17,20,22,30,,,,2.0,1.0,1.7*3C
2024/04/23,16:18:54,9.21,$GPGGA,191856.0,2046.348928,S,04132.185116,W,1,09,1.0,260.4,M,-5.0,M,,*43,$GPGSA,A,3,05,07,09,13,14,17,20,22,30,,,,2.0,1.0,1.7*3C
2024/04/23,16:18:55,9.18,$GPGGA,191857.0,2046.346854,S,04132.183119,W,1,09,1.0,260.3,M,-5.0,M,,*48,$GPGSA,A,3,05,07,09,13,14,17,20,22,30,,,,2.0,1.0,1.7*3C
2024/04/23,16:18:56,9.18,$GPGGA,191858.0,2046.344786,S,04132.181141,W,1,09,1.0,260.5,M,-5.0,M,,*4C,$GPGSA,A,3,05,07,09,13,14,17,20,22,30,,,,2.0,1.0,1.7*3C
2024/04/23,16:18:57,9.19,$GPGGA,191859.0,2046.342019,S,04132.178962,W,1,09,1.0,260.0,M,-5.0,M,,*40,$GPGSA,A,3,05,07,09,13,14,17,20,22,30,,,,2.0,1.0,1.7*3C
2024/04/23,16:18:58,9.20,$GPGGA,191900.0,2046.339747,S,04132.176906,W,1,09,1.1,259.4,M,-5.0,M,,*4E,$GPGSA,A,3,05,07,09,13,14,17,20,22,30,,,,2.1,1.1,1.8*33
2024/04/23,16:18:59,9.19,$GPGGA,191901.0,2046.337448,S,04132.174935,W,1,09,1.1,259.3,M,-5.0,M,,*48,$GPGSA,A,3,05,07,09,13,14,17,20,22,30,,,,2.1,1.1,1.8*33
2024/04/23,16:19:00,9.19,$GPGGA,191902.0,2046.335295,S,04132.172912,W,1,09,1.1,259.0,M,-5.0,M,,*4F,$GPGSA,A,3,05,07,09,13,14,17,20,22,30,,,,2.1,1.1,1.8*33
2024/04/23,16:19:01,9.20,$GPGGA,191903.0,2046.332929,S,04132.171103,W,1,09,1.0,258.5,M,-5.0,M,,*4B,$GPGSA,A,3,05,07,09,13,14,17,20,22,30,,,,2.0,1.0,1.7*3C
2024/04/23,16:19:02,9.23,$GPGGA,191904.0,2046.330592,S,04132.169311,W,1,09,1.0,258.2,M,-5.0,M,,*4D,$GPGSA,A,3,05,07,09,13,14,17,20,22,30,,,,2.0,1.0,1.7*3C
2024/04/23,16:19:03,9.23,$GPGGA,191905.0,2046.328650,S,04132.167299,W,1,09,1.0,258.1,M,-5.0,M,,*44,$GPGSA,A,3,05,07,09,13,14,17,20,22,30,,,,2.0,1.0,1.7*3C
2024/04/23,16:19:04,9.22,$GPGGA,191906.0,2046.326760,S,04132.165681,W,1,09,1.0,257.9,M,-5.0,M,,*43,$GPGSA,A,3,05,07,09,13,14,17,20,22,30,,,,2.0,1.0,1.7*3C
2024/04/23,16:19:05,9.21,$GPGGA,191907.0,2046.325300,S,04132.164556,W,1,09,1.0,257.7,M,-5.0,M,,*45,$GPGSA,A,3,05,07,09,13,14,17,20,22,30,,,,2.0,1.0,1.7*3C
2024/04/23,16:19:06,9.18,$GPGGA,191908.0,2046.324286,S,04132.163988,W,1,08,1.0,257.6,M,-5.0,M,,*4C,$GPGSA,A,3,07,09,13,14,17,20,22,30,,,,,2.0,1.0,1.7*39
2024/04/23,16:19:07,9.17,$GPGGA,191909.0,2046.323468,S,04132.163454,W,1,08,1.0,257.6,M,-5.0,M,,*40,$GPGSA,A,3,07,09,13,14,17,20,22,30,,,,,2.0,1.0,1.7*39
2024/04/23,16:19:08,9.17,$GPGGA,191910.0,2046.322569,S,04132.162734,W,1,09,1.0,257.5,M,-5.0,M,,*4F,$GPGSA,A,3,05,07,09,13,14,17,20,22,30,,,,2.0,1.0,1.7*3C
2024/04/23,16:19:09,9.15,$GPGGA,191911.0,2046.321560,S,04132.161792,W,1,09,1.0,257.5,M,-5.0,M,,*4B,$GPGSA,A,3,05,07,09,13,14,17,20,22,30,,,,2.0,1.0,1.7*3C
2024/04/23,16:19:10,9.16,$GPGGA,191912.0,2046.320324,S,04132.160745,W,1,09,1.0,257.5,M,-5.0,M,,*44,$GPGSA,A,3,05,07,09,13,14,17,20,22,30,,,,2.0,1.0,1.7*3C
2024/04/23,16:19:11,9.15,$GPGGA,191913.0,2046.318364,S,04132.159053,W,1,09,1.0,257.3,M,-5.0,M,,*46,$GPGSA,A,3,05,07,09,13,14,17,20,22,30,,,,2.0,1.0,1.7*3C
2024/04/23,16:19:12,9.15,$GPGGA,191914.0,2046.316783,S,04132.157769,W,1,09,1.0,257.1,M,-5.0,M,,*40,$GPGSA,A,3,05,07,09,13,14,17,20,22,30,,,,2.0,1.0,1.7*3C
2024/04/23,16:19:13,9.13,$GPGGA,191915.0,2046.314946,S,04132.156309,W,1,09,1.0,256.9,M,-5.0,M,,*4E,$GPGSA,A,3,05,07,09,13,14,17,20,22,30,,,,2.0,1.0,1.7*3C
2024/04/23,16:19:14,9.17,$GPGGA,191916.0,2046.313022,S,04132.154788,W,1,09,1.0,256.6,M,-5.0,M,,*41,$GPGSA,A,3,05,07,09,13,14,17,20,22,30,,,,2.0,1.0,1.7*3C
2024/04/23,16:19:15,9.14,$GPGGA,191917.0,2046.311001,S,04132.153046,W,1,09,1.0,256.6,M,-5.0,M,,*41,$GPGSA,A,3,05,07,09,13,14,17,20,22,30,,,,2.0,1.0,1.7*3C
2024/04/23,16:19:16,9.11,$GPGGA,191918.0,2046.308902,S,04132.151349,W,1,09,1.0,256.4,M,-5.0,M,,*40,$GPGSA,A,3,05,07,09,13,14,17,20,22,30,,,,2.0,1.0,1.7*3C
2024/04/23,16:19:17,9.13,$GPGGA,191919.0,2046.306773,S,04132.149565,W,1,09,1.0,256.5,M,-5.0,M,,*47,$GPGSA,A,3,05,07,09,13,14,17,20,22,30,,,,2.0,1.0,1.7*3C
2024/04/23,16:19:18,9.17,$GPGGA,191920.0,2046.304670,S,04132.147686,W,1,09,1.0,256.4,M,-5.0,M,,*4C,$GPGSA,A,3,05,07,09,13,14,17,20,22,30,,,,2.0,1.0,1.7*3C
2024/04/23,16:19:19,9.18,$GPGGA,191921.0,2046.302476,S,04132.145922,W,1,09,1.0,256.4,M,-5.0,M,,*4C,$GPGSA,A,3,05,07,09,13,14,17,20,22,30,,,,2.0,1.0,1.7*3C
2024/04/23,16:19:20,9.18,$GPGGA,191922.0,2046.300367,S,04132.144166,W,1,09,1.0,256.3,M,-5.0,M,,*44,$GPGSA,A,3,05,07,09,13,14,17,20,22,30,,,,2.0,1.0,1.7*3C
2024/04/23,16:19:21,9.17,$GPGGA,191923.0,2046.298201,S,04132.141983,W,1,09,1.0,256.3,M,-5.0,M,,*42,$GPGSA,A,3,05,07,09,13,14,17,20,22,30,,,,2.0,1.0,1.7*3C
2024/04/23,16:19:22,9.16,$GPGGA,191924.0,2046.296188,S,04132.140086,W,1,09,1.0,256.2,M,-5.0,M,,*45,$GPGSA,A,3,05,07,09,13,14,17,20,22,30,,,,2.0,1.0,1.7*3C
2024/04/23,16:19:23,9.18,$GPGGA,191925.0,2046.294081,S,04132.138195,W,1,09,1.1,256.1,M,-5.0,M,,*40,$GPGSA,A,3,05,07,09,13,14,17,20,22,30,,,,2.1,1.1,1.8*33
2024/04/23,16:19:24,9.14,$GPGGA,191926.0,2046.292045,S,04132.136388,W,1,09,1.1,256.0,M,-5.0,M,,*4C,$GPGSA,A,3,05,07,09,13,14,17,20,22,30,,,,2.1,1.1,1.8*33
2024/04/23,16:19:25,9.14,$GPGGA,191927.0,2046.290017,S,04132.134558,W,1,09,1.0,256.0,M,-5.0,M,,*40,$GPGSA,A,3,05,07,09,13,14,17,20,22,30,,,,2.0,1.0,1.7*3C
2024/04/23,16:19:26,9.17,$GPGGA,191928.0,2046.288195,S,04132.132534,W,1,09,1.0,256.0,M,-5.0,M,,*41,$GPGSA,A,3,05,07,09,13,14,17,20,22,30,,,,2.0,1.0,1.7*3C
2024/04/23,16:19:27,9.17,$GPGGA,191929.0,2046.286416,S,04132.130521,W,1,09,1.0,256.1,M,-5.0,M,,*47,$GPGSA,A,3,05,07,09,13,14,17,20,22,30,,,,2.0,1.0,1.7*3C
2024/04/23,16:19:28,9.16,$GPGGA,191930.0,2046.284466,S,04132.128979,W,1,09,1.0,256.1,M,-5.0,M,,*42,$GPGSA,A,3,05,07,09,13,14,17,20,22,30,,,,2.0,1.0,1.7*3C
2024/04/23,16:19:29,9.18,$GPGGA,191931.0,2046.282701,S,04132.127220,W,1,09,1.0,256.1,M,-5.0,M,,*4F,$GPGSA,A,3,05,07,09,13,14,17,20,22,30,,,,2.0,1.0,1.7*3C
2024/04/23,16:19:30,9.20,$GPGGA,191932.0,2046.281096,S,04132.125740,W,1,09,1.1,256.1,M,-5.0,M,,*46,$GPGSA,A,3,05,07,09,13,14,17,20,22,30,,,,2.1,1.1,1.8*33
2024/04/23,16:19:31,9.17,$GPGGA,191933.0,2046.279509,S,04132.124193,W,1,09,1.1,256.1,M,-5.0,M,,*4A,$GPGSA,A,3,05,07,09,13,14,17,20,22,30,,,,2.1,1.1,1.8*33
2024/04/23,16:19:32,9.16,$GPGGA,191934.0,2046.278168,S,04132.123107,W,1,09,1.1,255.9,M,-5.0,M,,*4E,$GPGSA,A,3,05,07,09,13,14,17,20,22,30,,,,2.1,1.1,1.8*33
2024/04/23,16:19:33,9.18,$GPGGA,191935.0,2046.276798,S,04132.122278,W,1,09,1.1,255.8,M,-5.0,M,,*43,$GPGSA,A,3,05,07,09,13,14,17,20,22,30,,,,2.1,1.1,1.8*33
2024/04/23,16:19:34,9.20,$GPGGA,191936.0,2046.275427,S,04132.121659,W,1,09,1.1,255.8,M,-5.0,M,,*40,$GPGSA,A,3,05,07,09,13,14,17,20,22,30,,,,2.1,1.1,1.8*33
2024/04/23,16:19:35,9.20,$GPGGA,191937.0,2046.273895,S,04132.121175,W,1,09,1.1,255.6,M,-5.0,M,,*45,$GPGSA,A,3,05,07,09,13,14,17,20,22,30,,,,2.1,1.1,1.8*33
2024/04/23,16:19:36,9.21,$GPGGA,191938.0,2046.272203,S,04132.120812,W,1,08,1.1,255.1,M,-5.0,M,,*41,$GPGSA,A,3,05,07,09,13,14,17,22,30,,,,,2.1,1.1,1.8*31
2024/04/23,16:19:37,9.20,$GPGGA,191939.0,2046.270357,S,04132.120770,W,1,08,1.1,254.7,M,-5.0,M,,*4E,$GPGSA,A,3,05,07,09,13,14,17,22,30,,,,,2.1,1.1,1.8*31
2024/04/23,16:19:38,9.18,$GPGGA,191940.0,2046.268412,S,04132.120830,W,1,08,1.1,254.7,M,-5.0,M,,*44,$GPGSA,A,3,05,07,09,13,14,17,22,30,,,,,2.1,1.1,1.8*31
2024/04/23,16:19:39,9.13,$GPGGA,191941.0,2046.266333,S,04132.121082,W,1,07,1.1,254.6,M,-5.0,M,,*41,$GPGSA,A,3,07,09,13,14,17,22,30,,,,,,2.1,1.1,1.8*34
2024/04/23,16:19:40,9.14,$GPGGA,191942.0,2046.264312,S,04132.121540,W,1,07,1.1,254.8,M,-5.0,M,,*46,$GPGSA,A,3,07,09,13,14,17,22,30,,,,,,2.1,1.1,1.8*34
2024/04/23,16:19:41,9.12,$GPGGA,191943.0,2046.261821,S,04132.122279,W,1,07,1.1,253.8,M,-5.0,M,,*40,$GPGSA,A,3,07,09,13,14,17,22,30,,,,,,2.1,1.1,1.8*34
2024/04/23,16:19:42,9.13,$GPGGA,191944.0,2046.259314,S,04132.122859,W,1,07,1.1,253.9,M,-5.0,M,,*48,$GPGSA,A,3,07,09,13,14,17,22,30,,,,,,2.1,1.1,1.8*34
2024/04/23,16:19:43,9.15,$GPGGA,191945.0,2046.255967,S,04132.124579,W,1,07,1.1,253.0,M,-5.0,M,,*4B,$GPGSA,A,3,07,09,13,14,17,22,30,,,,,,2.1,1.1,1.8*34
2024/04/23,16:19:44,9.14,$GPGGA,191946.0,2046.253361,S,04132.125232,W,1,08,1.0,253.1,M,-5.0,M,,*44,$GPGSA,A,3,07,09,13,14,17,20,22,30,,,,,2.0,1.0,1.7*39
2024/04/23,16:19:45,9.17,$GPGGA,191947.0,2046.250258,S,04132.125449,W,1,08,1.0,253.2,M,-5.0,M,,*44,$GPGSA,A,3,07,09,13,14,17,20,22,30,,,,,2.0,1.0,1.7*39
2024/04/23,16:19:46,9.18,$GPGGA,191948.0,2046.247153,S,04132.125959,W,1,08,1.0,253.4,M,-5.0,M,,*4F,$GPGSA,A,3,07,09,13,14,17,20,22,30,,,,,2.0,1.0,1.7*39
2024/04/23,16:19:47,9.19,$GPGGA,191949.0,2046.244127,S,04132.126414,W,1,07,1.0,253.3,M,-5.0,M,,*41,$GPGSA,A,3,07,09,14,17,20,22,30,,,,,,2.2,1.0,1.9*37
2024/04/23,16:19:48,9.15,$GPGGA,191950.0,2046.241187,S,04132.126961,W,1,07,1.0,253.4,M,-5.0,M,,*4E,$GPGSA,A,3,07,09,14,17,20,22,30,,,,,,2.2,1.0,1.9*37
2024/04/23,16:19:49,9.14,$GPGGA,191951.0,2046.238359,S,04132.127499,W,1,07,1.0,253.7,M,-5.0,M,,*48,$GPGSA,A,3,07,09,14,17,20,22,30,,,,,,2.2,1.0,1.9*37
2024/04/23,16:19:50,9.16,$GPGGA,191952.0,2046.235689,S,04132.127964,W,1,07,1.0,253.9,M,-5.0,M,,*4F,$GPGSA,A,3,07,09,14,17,20,22,30,,,,,,2.2,1.0,1.9*37
2024/04/23,16:19:51,9.14,$GPGGA,191953.0,2046.233009,S,04132.128478,W,1,07,1.0,254.1,M,-5.0,M,,*46,$GPGSA,A,3,07,09,14,17,20,22,30,,,,,,2.0,1.0,1.7*3B
2024/04/23,16:19:52,9.13,$GPGGA,191954.0,2046.230370,S,04132.128943,W,1,09,1.0,254.6,M,-5.0,M,,*43,$GPGSA,A,3,05,07,09,13,14,17,20,22,30,,,,2.0,1.0,1.7*3C
2024/04/23,16:19:53,9.15,$GPGGA,191955.0,2046.227728,S,04132.129507,W,1,09,1.0,254.8,M,-5.0,M,,*4E,$GPGSA,A,3,05,07,09,13,14,17,20,22,30,,,,2.0,1.0,1.7*3C
2024/04/23,16:19:54,9.10,$GPGGA,191956.0,2046.225076,S,04132.130001,W,1,10,0.9,255.2,M,-5.0,M,,*43,$GPGSA,A,3,05,07,09,13,14,17,19,20,22,30,,,1.8,0.9,1.6*36
2024/04/23,16:19:55,9.11,$GPGGA,191957.0,2046.222340,S,04132.130453,W,1,10,0.9,255.8,M,-5.0,M,,*4A,$GPGSA,A,3,05,07,09,13,14,17,19,20,22,30,,,1.8,0.9,1.6*36
2024/04/23,16:19:56,9.17,$GPGGA,191958.0,2046.219345,S,04132.130984,W,1,10,1.0,255.6,M,-5.0,M,,*49,$GPGSA,A,3,05,07,09,13,14,17,19,20,22,30,,,2.0,1.0,1.7*34
2024/04/23,16:19:57,9.20,$GPGGA,191959.0,2046.216188,S,04132.131517,W,1,10,1.0,255.8,M,-5.0,M,,*4D,$GPGSA,A,3,05,07,09,13,14,17,19,20,22,30,,,2.0,1.0,1.7*34
2024/04/23,16:19:58,9.23,$GPGGA,192000.0,2046.213261,S,04132.132117,W,1,10,0.9,256.2,M,-5.0,M,,*4C,$GPGSA,A,3,05,07,09,13,14,17,19,20,22,30,,,1.8,0.9,1.6*36
2024/04/23,16:19:59,9.13,$GPGGA,192001.0,2046.210351,S,04132.132631,W,1,10,0.9,256.4,M,-5.0,M,,*49,$GPGSA,A,3,05,07,09,13,14,17,19,20,22,30,,,1.8,0.9,1.6*36
2024/04/23,16:20:00,9.17,$GPGGA,192002.0,2046.207543,S,04132.133246,W,1,10,0.9,256.6,M,-5.0,M,,*4E,$GPGSA,A,3,05,07,09,13,14,17,19,20,22,30,,,1.8,0.9,1.6*36
2024/04/23,16:20:01,9.12,$GPGGA,192003.0,2046.204614,S,04132.133914,W,1,10,0.9,257.0,M,-5.0,M,,*46,$GPGSA,A,3,05,07,09,13,14,17,19,20,22,30,,,1.8,0.9,1.6*36
2024/04/23,16:20:02,9.13,$GPGGA,192004.0,2046.201661,S,04132.134650,W,1,10,0.9,257.3,M,-5.0,M,,*4D,$GPGSA,A,3,05,07,09,13,14,17,19,20,22,30,,,1.8,0.9,1.6*36
2024/04/23,16:20:03,9.12,$GPGGA,192005.0,2046.198774,S,04132.135256,W,1,10,0.9,257.6,M,-5.0,M,,*4C,$GPGSA,A,3,05,07,09,13,14,17,19,20,22,30,,,1.8,0.9,1.6*36
2024/04/23,16:20:04,9.15,$GPGGA,192006.0,2046.195798,S,04132.135854,W,1,10,0.9,257.8,M,-5.0,M,,*46,$GPGSA,A,3,05,07,09,13,14,17,19,20,22,30,,,1.8,0.9,1.6*36
2024/04/23,16:20:05,9.17,$GPGGA,192007.0,2046.192813,S,04132.136607,W,1,10,0.9,258.1,M,-5.0,M,,*41,$GPGSA,A,3,05,07,09,13,14,17,19,20,22,30,,,1.8,0.9,1.6*36
2024/04/23,16:20:06,9.17,$GPGGA,192008.0,2046.189867,S,04132.137227,W,1,10,0.9,258.0,M,-5.0,M,,*41,$GPGSA,A,3,05,07,09,13,14,17,19,20,22,30,,,1.8,0.9,1.6*36
2024/04/23,16:20:07,9.19,$GPGGA,192009.0,2046.186787,S,04132.137712,W,1,10,0.9,258.0,M,-5.0,M,,*4D,$GPGSA,A,3,05,07,09,13,14,17,19,20,22,30,,,1.8,0.9,1.6*36
2024/04/23,16:20:08,9.17,$GPGGA,192010.0,2046.183756,S,04132.137948,W,1,10,0.9,258.2,M,-5.0,M,,*4F,$GPGSA,A,3,05,07,09,13,14,17,19,20,22,30,,,1.8,0.9,1.6*36
2024/04/23,16:20:09,9.17,$GPGGA,192011.0,2046.180599,S,04132.138100,W,1,10,0.9,258.3,M,-5.0,M,,*46,$GPGSA,A,3,05,07,09,13,14,17,19,20,22,30,,,1.8,0.9,1.6*36
2024/04/23,16:20:10,9.10,$GPGGA,192012.0,2046.177623,S,04132.137905,W,1,10,0.9,258.4,M,-5.0,M,,*4A,$GPGSA,A,3,05,07,09,13,14,17,19,20,22,30,,,1.8,0.9,1.6*36
2024/04/23,16:20:11,9.11,$GPGGA,192013.0,2046.174630,S,04132.137653,W,1,10,0.9,258.6,M,-5.0,M,,*44,$GPGSA,A,3,05,07,09,13,14,17,19,20,22,30,,,1.8,0.9,1.6*36
2024/04/23,16:20:12,9.11,$GPGGA,192014.0,2046.171894,S,04132.137150,W,1,10,0.9,258.7,M,-5.0,M,,*43,$GPGSA,A,3,05,07,09,13,14,17,19,20,22,30,,,1.8,0.9,1.6*36
2024/04/23,16:20:13,9.17,$GPGGA,192015.0,2046.169539,S,04132.136599,W,1,10,0.9,258.7,M,-5.0,M,,*41,$GPGSA,A,3,05,07,09,13,14,17,19,20,22,30,,,1.8,0.9,1.6*36
2024/04/23,16:20:14,9.10,$GPGGA,192016.0,2046.167886,S,04132.136258,W,1,10,0.9,259.0,M,-5.0,M,,*49,$GPGSA,A,3,05,07,09,13,14,17,19,20,22,30,,,1.8,0.9,1.6*36
2024/04/23,16:20:15,9.14,$GPGGA,192017.0,2046.166616,S,04132.136006,W,1,10,0.9,259.3,M,-5.0,M,,*44,$GPGSA,A,3,05,07,09,13,14,17,19,20,22,30,,,1.8,0.9,1.6*36
2024/04/23,16:20:16,9.14,$GPGGA,192018.0,2046.165396,S,04132.135726,W,1,10,0.9,259.3,M,-5.0,M,,*43,$GPGSA,A,3,05,07,09,13,14,17,19,20,22,30,,,1.8,0.9,1.6*36
2024/04/23,16:20:17,9.16,$GPGGA,192019.0,2046.163869,S,04132.135421,W,1,10,0.9,259.3,M,-5.0,M,,*4B,$GPGSA,A,3,05,07,09,13,14,17,19,20,22,30,,,1.8,0.9,1.6*36
2024/04/23,16:20:18,9.11,$GPGGA,192020.0,2046.161796,S,04132.134812,W,1,10,0.9,259.4,M,-5.0,M,,*46,$GPGSA,A,3,05,07,09,13,14,17,19,20,22,30,,,1.8,0.9,1.6*36
2024/04/23,16:20:19,9.12,$GPGGA,192021.0,2046.158794,S,04132.133658,W,1,10,0.9,259.9,M,-5.0,M,,*45,$GPGSA,A,3,05,07,09,13,14,17,19,20,22,30,,,1.8,0.9,1.6*36
2024/04/23,16:20:20,9.10,$GPGGA,192022.0,2046.156135,S,04132.132540,W,1,10,0.9,260.0,M,-5.0,M,,*4D,$GPGSA,A,3,05,07,09,13,14,17,19,20,22,30,,,1.8,0.9,1.6*36
2024/04/23,16:20:21,9.13,$GPGGA,192023.0,2046.153608,S,04132.131171,W,1,10,0.9,260.1,M,-5.0,M,,*44,$GPGSA,A,3,05,07,09,13,14,17,19,20,22,30,,,1.8,0.9,1.6*36
2024/04/23,16:20:22,9.16,$GPGGA,192024.0,2046.151158,S,04132.129957,W,1,10,0.9,260.0,M,-5.0,M,,*47,$GPGSA,A,3,05,07,09,13,14,17,19,20,22,30,,,1.8,0.9,1.6*36
2024/04/23,16:20:23,9.13,$GPGGA,192025.0,2046.148846,S,04132.128637,W,1,10,1.1,260.1,M,-5.0,M,,*48,$GPGSA,A,3,05,07,09,13,14,17,19,20,22,30,,,2.0,1.1,1.6*34
2024/04/23,16:20:24,9.13,$GPGGA,192026.0,2046.146791,S,04132.127358,W,1,10,1.1,260.1,M,-5.0,M,,*43,$GPGSA,A,3,05,07,09,13,14,17,19,20,22,30,,,2.0,1.1,1.6*34
2024/04/23,16:20:25,9.12,$GPGGA,192027.0,2046.144762,S,04132.126192,W,1,10,1.1,260.1,M,-5.0,M,,*49,$GPGSA,A,3,05,07,09,13,14,17,19,20,22,30,,,2.0,1.1,1.6*34
2024/04/23,16:20:26,9.07,$GPGGA,192028.0,2046.142752,S,04132.124822,W,1,10,1.1,260.3,M,-5.0,M,,*41,$GPGSA,A,3,05,07,09,13,14,17,19,20,22,30,,,2.0,1.1,1.6*34
2024/04/23,16:20:27,9.02,$GPGGA,192029.0,2046.141016,S,04132.122904,W,1,10,1.1,260.2,M,-5.0,M,,*46,$GPGSA,A,3,05,07,09,13,14,17,19,20,22,30,,,2.0,1.1,1.6*34
2024/04/23,16:20:28,9.15,$GPGGA,192030.0,2046.139329,S,04132.121199,W,1,10,1.1,260.3,M,-5.0,M,,*40,$GPGSA,A,3,05,07,09,13,14,17,19,20,22,30,,,2.0,1.1,1.6*34
2024/04/23,16:20:29,9.20,$GPGGA,192031.0,2046.137663,S,04132.119475,W,1,09,1.1,260.4,M,-5.0,M,,*47,$GPGSA,A,3,05,09,13,14,17,19,20,22,30,,,,2.0,1.1,1.6*33
2024/04/23,16:20:30,9.21,$GPGGA,192032.0,2046.136142,S,04132.117789,W,1,09,0.9,260.5,M,-5.0,M,,*47,$GPGSA,A,3,05,09,13,14,17,19,20,22,30,,,,1.8,0.9,1.6*31
2024/04/23,16:20:31,9.21,$GPGGA,192033.0,2046.134467,S,04132.115937,W,1,10,0.9,260.6,M,-5.0,M,,*44,$GPGSA,A,3,05,07,09,13,14,17,19,20,22,30,,,1.8,0.9,1.6*36
2024/04/23,16:20:32,9.18,$GPGGA,192034.0,2046.132813,S,04132.114021,W,1,10,0.9,260.4,M,-5.0,M,,*47,$GPGSA,A,3,05,07,09,13,14,17,19,20,22,30,,,1.8,0.9,1.6*36
2024/04/23,16:20:33,9.19,$GPGGA,192035.0,2046.131189,S,04132.112042,W,1,10,0.9,260.5,M,-5.0,M,,*4D,$GPGSA,A,3,05,07,09,13,14,17,19,20,22,30,,,1.8,0.9,1.6*36
2024/04/23,16:20:34,9.16,$GPGGA,192036.0,2046.129586,S,04132.110017,W,1,10,0.9,260.5,M,-5.0,M,,*4E,$GPGSA,A,3,05,07,09,13,14,17,19,20,22,30,,,1.8,0.9,1.6*36
2024/04/23,16:20:35,9.15,$GPGGA,192037.0,2046.128061,S,04132.107897,W,1,10,0.9,260.5,M,-5.0,M,,*44,$GPGSA,A,3,05,07,09,13,14,17,19,20,22,30,,,1.8,0.9,1.6*36
2024/04/23,16:20:36,9.17,$GPGGA,192038.0,2046.126693,S,04132.105907,W,1,10,0.9,260.6,M,-5.0,M,,*47,$GPGSA,A,3,05,07,09,13,14,17,19,20,22,30,,,1.8,0.9,1.6*36
2024/04/23,16:20:37,9.12,$GPGGA,192039.0,2046.125420,S,04132.103906,W,1,10,0.9,260.7,M,-5.0,M,,*49,$GPGSA,A,3,05,07,09,13,14,17,19,20,22,30,,,2.0,0.9,1.8*33
2024/04/23,16:20:38,9.13,$GPGGA,192040.0,2046.124292,S,04132.101896,W,1,10,0.9,260.8,M,-5.0,M,,*4C,$GPGSA,A,3,05,07,09,13,14,17,19,20,22,30,,,2.0,0.9,1.8*33
2024/04/23,16:20:39,9.11,$GPGGA,192041.0,2046.123119,S,04132.099893,W,1,10,0.9,260.9,M,-5.0,M,,*4E,$GPGSA,A,3,05,07,09,13,14,17,19,20,22,30,,,2.0,0.9,1.8*33
2024/04/23,16:20:40,9.10,$GPGGA,192042.0,2046.122171,S,04132.097934,W,1,10,0.9,261.0,M,-5.0,M,,*48,$GPGSA,A,3,05,07,09,13,14,17,19,20,22,30,,,2.0,0.9,1.8*33
2024/04/23,16:20:41,9.01,$GPGGA,192043.0,2046.121145,S,04132.096018,W,1,10,1.0,261.1,M,-5.0,M,,*42,$GPGSA,A,3,05,07,09,13,14,17,19,20,22,30,,,2.2,1.0,1.9*38
2024/04/23,16:20:42,9.04,$GPGGA,192044.0,2046.120254,S,04132.094114,W,1,10,1.0,261.0,M,-5.0,M,,*49,$GPGSA,A,3,05,07,09,13,14,17,19,20,22,30,,,2.2,1.0,1.9*38
2024/04/23,16:20:43,9.04,$GPGGA,192045.0,2046.119339,S,04132.092198,W,1,09,1.0,261.1,M,-5.0,M,,*43,$GPGSA,A,3,05,07,09,14,17,19,20,22,30,,,,2.2,1.0,1.9*3A
2024/04/23,16:20:44,9.02,$GPGGA,192046.0,2046.118525,S,04132.090343,W,1,10,1.0,260.9,M,-5.0,M,,*4D,$GPGSA,A,3,05,07,09,13,14,17,19,20,22,30,,,2.0,1.0,1.7*34
2024/04/23,16:20:45,9.04,$GPGGA,192047.0,2046.117772,S,04132.088578,W,1,10,1.0,260.8,M,-5.0,M,,*45,$GPGSA,A,3,05,07,09,13,14,17,19,20,22,30,,,2.0,1.0,1.7*34
2024/04/23,16:20:46,9.04,$GPGGA,192048.0,2046.117049,S,04132.086820,W,1,10,1.0,260.6,M,-5.0,M,,*45,$GPGSA,A,3,05,07,09,13,14,17,19,20,22,30,,,2.0,1.0,1.7*34
2024/04/23,16:20:47,9.06,$GPGGA,192049.0,2046.116495,S,04132.085130,W,1,09,1.1,260.5,M,-5.0,M,,*41,$GPGSA,A,3,05,07,09,13,14,17,20,22,30,,,,2.1,1.1,1.8*33
2024/04/23,16:20:48,9.05,$GPGGA,192050.0,2046.116023,S,04132.083748,W,1,09,1.1,260.4,M,-5.0,M,,*4E,$GPGSA,A,3,05,07,09,13,14,17,20,22,30,,,,2.1,1.1,1.8*33
2024/04/23,16:20:49,9.04,$GPGGA,192051.0,2046.115675,S,04132.082660,W,1,09,1.1,260.2,M,-5.0,M,,*45,$GPGSA,A,3,05,07,09,13,14,17,20,22,30,,,,2.1,1.1,1.8*33
2024/04/23,16:20:50,9.05,$GPGGA,192052.0,2046.115440,S,04132.081871,W,1,09,1.1,260.1,M,-5.0,M,,*4C,$GPGSA,A,3,05,07,09,13,14,17,20,22,30,,,,2.1,1.1,1.8*33
2024/04/23,16:20:51,9.05,$GPGGA,192053.0,2046.115336,S,04132.081471,W,1,09,1.1,260.1,M,-5.0,M,,*47,$GPGSA,A,3,05,07,09,13,14,17,20,22,30,,,,2.1,1.1,1.8*33
2024/04/23,16:20:52,9.04,$GPGGA,192054.0,2046.115310,S,04132.081339,W,1,09,1.1,259.9,M,-5.0,M,,*4D,$GPGSA,A,3,05,07,09,13,14,17,20,22,30,,,,2.1,1.1,1.8*33
2024/04/23,16:20:53,9.04,$GPGGA,192055.0,2046.115507,S,04132.081908,W,1,08,1.0,259.8,M,-5.0,M,,*45,$GPGSA,A,3,05,07,09,13,14,17,22,30,,,,,2.0,1.0,1.7*3E
2024/04/23,16:20:54,9.04,$GPGGA,192056.0,2046.115633,S,04132.082291,W,1,08,1.1,259.7,M,-5.0,M,,*44,$GPGSA,A,3,05,07,09,13,14,17,22,30,,,,,2.1,1.1,1.8*31
2024/04/23,16:20:55,9.01,$GPGGA,192057.0,2046.115699,S,04132.082487,W,1,08,1.1,259.6,M,-5.0,M,,*45,$GPGSA,A,3,05,07,09,13,14,17,22,30,,,,,2.1,1.1,1.8*31
2024/04/23,16:20:56,9.03,$GPGGA,192058.0,2046.115660,S,04132.082342,W,1,08,1.1,259.6,M,-5.0,M,,*42,$GPGSA,A,3,05,07,09,13,14,17,22,30,,,,,2.1,1.1,1.8*31
2024/04/23,16:20:57,9.04,$GPGGA,192059.0,2046.115473,S,04132.081864,W,1,08,1.1,259.5,M,-5.0,M,,*4C,$GPGSA,A,3,05,07,09,13,14,17,22,30,,,,,2.1,1.1,1.8*31
2024/04/23,16:20:58,9.07,$GPGGA,192100.0,2046.115203,S,04132.081197,W,1,08,1.1,259.4,M,-5.0,M,,*44,$GPGSA,A,3,05,07,09,13,14,17,22,30,,,,,2.1,1.1,1.8*31
2024/04/23,16:20:59,9.00,$GPGGA,192101.0,2046.114846,S,04132.080388,W,1,08,1.1,259.2,M,-5.0,M,,*44,$GPGSA,A,3,05,07,09,13,14,17,22,30,,,,,2.1,1.1,1.8*31
2024/04/23,16:21:00,9.00,$GPGGA,192102.0,2046.114343,S,04132.079322,W,1,10,0.9,259.2,M,-5.0,M,,*4F,$GPGSA,A,3,05,07,08,09,13,14,17,20,22,30,,,1.6,0.9,1.4*3A
2024/04/23,16:21:01,9.08,$GPGGA,192103.0,2046.113755,S,04132.078163,W,1,10,0.9,259.1,M,-5.0,M,,*4F,$GPGSA,A,3,05,07,08,09,13,14,17,20,22,30,,,1.6,0.9,1.4*3A
2024/04/23,16:21:02,9.07,$GPGGA,192104.0,2046.113145,S,04132.076919,W,1,10,0.9,259.0,M,-5.0,M,,*45,$GPGSA,A,3,05,07,08,09,13,14,17,20,22,30,,,1.6,0.9,1.4*3A
2024/04/23,16:21:03,9.08,$GPGGA,192105.0,2046.112625,S,04132.075934,W,1,10,0.9,258.8,M,-5.0,M,,*41,$GPGSA,A,3,05,07,08,09,13,14,17,20,22,30,,,1.6,0.9,1.4*3A
2024/04/23,16:21:04,9.03,$GPGGA,192106.0,2046.112255,S,04132.075274,W,1,10,0.9,258.8,M,-5.0,M,,*4E,$GPGSA,A,3,05,07,08,09,13,14,17,20,22,30,,,1.6,0.9,1.4*3A
2024/04/23,16:21:05,9.04,$GPGGA,192107.0,2046.111985,S,04132.074767,W,1,10,0.9,258.7,M,-5.0,M,,*43,$GPGSA,A,3,05,07,08,09,13,14,17,20,22,30,,,1.6,0.9,1.4*3A
2024/04/23,16:21:06,9.04,$GPGGA,192108.0,2046.111776,S,04132.074384,W,1,10,0.9,258.6,M,-5.0,M,,*46,$GPGSA,A,3,05,07,08,09,13,14,17,20,22,30,,,1.6,0.9,1.4*3A
2024/04/23,16:21:07,9.03,$GPGGA,192109.0,2046.111586,S,04132.074035,W,1,10,0.9,258.6,M,-5.0,M,,*43,$GPGSA,A,3,05,07,08,09,13,14,17,20,22,30,,,1.6,0.9,1.4*3A
2024/04/23,16:21:08,9.05,$GPGGA,192110.0,2046.111361,S,04132.073585,W,1,10,0.9,258.5,M,-5.0,M,,*4E,$GPGSA,A,3,05,07,08,09,13,14,17,20,22,30,,,1.6,0.9,1.4*3A
2024/04/23,16:21:09,9.05,$GPGGA,192111.0,2046.111002,S,04132.072823,W,1,10,0.9,258.4,M,-5.0,M,,*48,$GPGSA,A,3,05,07,08,09,13,14,17,20,22,30,,,1.6,0.9,1.4*3A
2024/04/23,16:21:10,9.03,$GPGGA,192112.0,2046.110465,S,04132.071709,W,1,10,0.9,258.3,M,-5.0,M,,*4C,$GPGSA,A,3,05,07,08,09,13,14,17,20,22,30,,,1.6,0.9,1.4*3A
2024/04/23,16:21:11,9.02,$GPGGA,192113.0,2046.109804,S,04132.070285,W,1,10,0.9,258.2,M,-5.0,M,,*4F,$GPGSA,A,3,05,07,08,09,13,14,17,20,22,30,,,1.6,0.9,1.4*3A
2024/04/23,16:21:12,9.01,$GPGGA,192114.0,2046.109077,S,04132.068724,W,1,10,0.9,258.1,M,-5.0,M,,*40,$GPGSA,A,3,05,07,08,09,13,14,17,20,22,30,,,1.6,0.9,1.4*3A
2024/04/23,16:21:13,9.03,$GPGGA,192115.0,2046.108283,S,04132.066944,W,1,10,0.9,257.9,M,-5.0,M,,*48,$GPGSA,A,3,05,07,08,09,13,14,17,20,22,30,,,1.6,0.9,1.4*3A
2024/04/23,16:21:14,9.06,$GPGGA,192116.0,2046.107444,S,04132.065125,W,1,10,0.9,257.7,M,-5.0,M,,*4B,$GPGSA,A,3,05,07,08,09,13,14,17,20,22,30,,,1.6,0.9,1.4*3A
2024/04/23,16:21:15,9.01,$GPGGA,192117.0,2046.106625,S,04132.063274,W,1,10,0.9,257.6,M,-5.0,M,,*4E,$GPGSA,A,3,05,07,08,09,13,14,17,20,22,30,,,1.6,0.9,1.4*3A
2024/04/23,16:21:16,9.02,$GPGGA,192118.0,2046.105767,S,04132.061482,W,1,10,0.9,257.5,M,-5.0,M,,*4B,$GPGSA,A,3,05,07,08,09,13,14,17,20,22,30,,,1.6,0.9,1.4*3A
2024/04/23,16:21:17,9.03,$GPGGA,192119.0,2046.104937,S,04132.059659,W,1,10,0.9,257.4,M,-5.0,M,,*4E,$GPGSA,A,3,05,07,08,09,13,14,17,20,22,30,,,1.6,0.9,1.4*3A
2024/04/23,16:21:18,9.02,$GPGGA,192120.0,2046.103939,S,04132.057811,W,1,10,1.0,257.3,M,-5.0,M,,*4E,$GPGSA,A,3,05,07,08,09,13,14,17,20,22,30,,,2.0,1.0,1.7*34
2024/04/23,16:21:19,8.97,$GPGGA,192121.0,2046.102845,S,04132.055911,W,1,10,1.0,257.3,M,-5.0,M,,*47,$GPGSA,A,3,05,07,08,09,13,14,17,20,22,30,,,2.0,1.0,1.7*34
2024/04/23,16:21:20,8.95,$GPGGA,192122.0,2046.101744,S,04132.054048,W,1,10,1.0,257.2,M,-5.0,M,,*4C,$GPGSA,A,3,05,07,08,09,13,14,17,20,22,30,,,2.0,1.0,1.7*34
2024/04/23,16:21:21,9.00,$GPGGA,192123.0,2046.100600,S,04132.052126,W,1,10,1.0,257.1,M,-5.0,M,,*41,$GPGSA,A,3,05,07,08,09,13,14,17,20,22,30,,,2.0,1.0,1.7*34
2024/04/23,16:21:22,8.99,$GPGGA,192124.0,2046.099449,S,04132.050189,W,1,10,1.0,257.0,M,-5.0,M,,*4E,$GPGSA,A,3,05,07,08,09,13,14,17,20,22,30,,,2.0,1.0,1.7*34
2024/04/23,16:21:23,9.00,$GPGGA,192125.0,2046.098186,S,04132.048013,W,1,10,1.0,257.0,M,-5.0,M,,*43,$GPGSA,A,3,05,07,08,09,13,14,17,20,22,30,,,2.0,1.0,1.7*34
2024/04/23,16:21:24,9.04,$GPGGA,192126.0,2046.096956,S,04132.045873,W,1,09,1.0,257.0,M,-5.0,M,,*40,$GPGSA,A,3,05,07,09,13,14,17,20,22,30,,,,2.0,1.0,1.7*3C
2024/04/23,16:21:25,9.05,$GPGGA,192127.0,2046.095065,S,04132.042921,W,1,09,1.0,257.1,M,-5.0,M,,*4B,$GPGSA,A,3,05,07,09,13,14,17,20,22,30,,,,2.0,1.0,1.7*3C
2024/04/23,16:21:26,9.09,$GPGGA,192128.0,2046.093030,S,04132.040248,W,1,09,1.0,257.1,M,-5.0,M,,*44,$GPGSA,A,3,05,07,09,13,14,17,20,22,30,,,,2.0,1.0,1.7*3C
2024/04/23,16:21:27,9.09,$GPGGA,192129.0,2046.090350,S,04132.037810,W,1,09,1.1,256.9,M,-5.0,M,,*4C,$GPGSA,A,3,05,07,09,13,14,17,20,22,30,,,,2.1,1.1,1.8*33
2024/04/23,16:21:28,9.04,$GPGGA,192130.0,2046.087772,S,04132.035657,W,1,09,1.1,256.9,M,-5.0,M,,*49,$GPGSA,A,3,05,07,09,13,14,17,20,22,30,,,,2.1,1.1,1.8*33
2024/04/23,16:21:29,9.05,$GPGGA,192131.0,2046.084990,S,04132.033641,W,1,09,1.1,256.8,M,-5.0,M,,*49,$GPGSA,A,3,05,07,09,13,14,17,20,22,30,,,,2.1,1.1,1.8*33
2024/04/23,16:21:30,9.02,$GPGGA,192132.0,2046.082046,S,04132.031662,W,1,09,1.1,256.8,M,-5.0,M,,*4D,$GPGSA,A,3,05,07,09,13,14,17,20,22,30,,,,2.1,1.1,1.8*33
2024/04/23,16:21:31,9.02,$GPGGA,192133.0,2046.078963,S,04132.030036,W,1,09,1.1,256.8,M,-5.0,M,,*41,$GPGSA,A,3,05,07,09,13,14,17,20,22,30,,,,2.1,1.1,1.8*33
2024/04/23,16:21:32,9.02,$GPGGA,192134.0,2046.075824,S,04132.028597,W,1,09,1.1,257.0,M,-5.0,M,,*47,$GPGSA,A,3,05,07,09,13,14,17,20,22,30,,,,2.1,1.1,1.8*33
2024/04/23,16:21:33,9.02,$GPGGA,192135.0,2046.072917,S,04132.028396,W,1,08,1.1,256.9,M,-5.0,M,,*4E,$GPGSA,A,3,05,07,09,13,14,17,22,30,,,,,2.1,1.1,1.8*31
2024/04/23,16:21:34,9.02,$GPGGA,192136.0,2046.069988,S,04132.027872,W,1,08,1.1,256.8,M,-5.0,M,,*4E,$GPGSA,A,3,05,07,09,13,14,17,22,30,,,,,2.1,1.1,1.8*31
2024/04/23,16:21:35,9.02,$GPGGA,192137.0,2046.067124,S,04132.027281,W,1,08,1.1,256.8,M,-5.0,M,,*49,$GPGSA,A,3,05,07,09,13,14,17,22,30,,,,,2.3,1.1,2.0*38
2024/04/23,16:21:36,9.01,$GPGGA,192138.0,2046.064516,S,04132.026661,W,1,08,1.1,256.9,M,-5.0,M,,*4A,$GPGSA,A,3,05,07,09,13,14,17,22,30,,,,,2.3,1.1,2.0*38
2024/04/23,16:21:37,9.01,$GPGGA,192139.0,2046.061985,S,04132.026094,W,1,08,1.1,256.4,M,-5.0,M,,*49,$GPGSA,A,3,05,07,09,13,14,17,22,30,,,,,2.3,1.1,2.0*38
2024/04/23,16:21:38,9.03,$GPGGA,192140.0,2046.059725,S,04132.025133,W,1,08,1.1,256.4,M,-5.0,M,,*47,$GPGSA,A,3,05,07,09,13,14,17,22,30,,,,,2.1,1.1,1.8*31
2024/04/23,16:21:39,9.02,$GPGGA,192141.0,2046.057626,S,04132.024218,W,1,07,1.1,256.2,M,-5.0,M,,*48,$GPGSA,A,3,07,09,13,14,17,22,30,,,,,,2.1,1.1,1.8*34
2024/04/23,16:21:40,9.02,$GPGGA,192142.0,2046.056181,S,04132.023581,W,1,07,1.1,256.2,M,-5.0,M,,*40,$GPGSA,A,3,07,09,13,14,17,22,30,,,,,,2.1,1.1,1.8*34
2024/04/23,16:21:41,9.05,$GPGGA,192143.0,2046.054989,S,04132.023111,W,1,07,1.1,256.2,M,-5.0,M,,*4E,$GPGSA,A,3,07,09,13,14,17,22,30,,,,,,2.1,1.1,1.8*34
2024/04/23,16:21:42,9.03,$GPGGA,192144.0,2046.053854,S,04132.022701,W,1,07,1.0,256.2,M,-5.0,M,,*48,$GPGSA,A,3,07,09,13,14,17,22,30,,,,,,2.1,1.0,1.8*35
2024/04/23,16:21:43,9.04,$GPGGA,192145.0,2046.051766,S,04132.021860,W,1,08,1.0,256.3,M,-5.0,M,,*40,$GPGSA,A,3,07,09,13,14,17,19,22,30,,,,,1.9,1.0,1.6*38
2024/04/23,16:21:44,9.01,$GPGGA,192146.0,2046.049623,S,04132.021038,W,1,08,1.0,256.5,M,-5.0,M,,*49,$GPGSA,A,3,07,09,13,14,17,19,22,30,,,,,1.9,1.0,1.6*38
2024/04/23,16:21:45,8.99,$GPGGA,192147.0,2046.047401,S,04132.020302,W,1,08,1.0,256.8,M,-5.0,M,,*42,$GPGSA,A,3,07,09,13,14,17,19,22,30,,,,,1.9,1.0,1.6*38
2024/04/23,16:21:46,8.99,$GPGGA,192148.0,2046.045001,S,04132.019588,W,1,08,2.4,256.7,M,-5.0,M,,*4D,$GPGSA,A,3,07,09,13,14,17,19,22,30,,,,,7.8,2.4,7.4*3C
2024/04/23,16:21:47,9.00,$GPGGA,192149.0,2046.041421,S,04132.018574,W,1,08,2.4,256.6,M,-5.0,M,,*4D,$GPGSA,A,3,07,09,13,14,17,19,22,30,,,,,7.8,2.4,7.4*3C
2024/04/23,16:21:48,9.00,$GPGGA,192150.0,2046.038629,S,04132.017559,W,1,08,1.5,256.9,M,-5.0,M,,*4C,$GPGSA,A,3,07,09,13,14,17,19,22,30,,,,,3.4,1.5,3.0*36
2024/04/23,16:21:49,8.99,$GPGGA,192151.0,2046.035334,S,04132.016000,W,1,08,1.5,257.1,M,-5.0,M,,*48,$GPGSA,A,3,07,09,13,14,17,19,22,30,,,,,3.4,1.5,3.0*36
2024/04/23,16:21:50,9.01,$GPGGA,192152.0,2046.031298,S,04132.013826,W,1,08,2.4,260.0,M,-5.0,M,,*46,$GPGSA,A,3,07,09,13,14,17,19,22,30,,,,,7.8,2.4,7.4*3C
2024/04/23,16:21:51,9.00,$GPGGA,192153.0,2046.028408,S,04132.011844,W,1,08,1.2,256.6,M,-5.0,M,,*40,$GPGSA,A,3,07,09,13,14,17,19,22,30,,,,,2.4,1.2,2.1*30
2024/04/23,16:21:52,8.98,$GPGGA,192154.0,2046.025403,S,04132.009792,W,1,08,1.2,255.5,M,-5.0,M,,*4C,$GPGSA,A,3,07,09,13,14,17,19,22,30,,,,,2.4,1.2,2.1*30
2024/04/23,16:21:53,9.00,$GPGGA,192155.0,2046.022773,S,04132.007506,W,1,08,1.2,255.9,M,-5.0,M,,*43,$GPGSA,A,3,07,09,13,14,17,19,22,30,,,,,2.4,1.2,2.1*30
2024/04/23,16:21:54,9.01,$GPGGA,192156.0,2046.020414,S,04132.005168,W,1,08,1.2,255.8,M,-5.0,M,,*4F,$GPGSA,A,3,07,09,13,14,17,19,22,30,,,,,2.4,1.2,2.1*30
2024/04/23,16:21:55,9.02,$GPGGA,192157.0,2046.018202,S,04132.002737,W,1,08,1.2,255.6,M,-5.0,M,,*41,$GPGSA,A,3,07,09,13,14,17,19,22,30,,,,,2.4,1.2,2.1*30
2024/04/23,16:21:56,9.05,$GPGGA,192158.0,2046.016403,S,04132.000461,W,1,07,1.2,255.5,M,-5.0,M,,*49,$GPGSA,A,3,07,09,13,14,17,22,30,,,,,,2.4,1.2,2.1*38
2024/04/23,16:21:57,9.00,$GPGGA,192159.0,2046.015252,S,04131.998923,W,1,07,1.2,255.3,M,-5.0,M,,*4F,$GPGSA,A,3,07,09,13,14,17,22,30,,,,,,2.4,1.2,2.1*38
2024/04/23,16:21:58,9.04,$GPGGA,192200.0,2046.014170,S,04131.997541,W,1,07,1.0,255.3,M,-5.0,M,,*47,$GPGSA,A,3,07,09,13,14,17,22,30,,,,,,2.1,1.0,1.8*35
2024/04/23,16:21:59,9.02,$GPGGA,192201.0,2046.013381,S,04131.996551,W,1,07,1.0,255.2,M,-5.0,M,,*4C,$GPGSA,A,3,07,09,13,14,17,22,30,,,,,,2.1,1.0,1.8*35
2024/04/23,16:22:00,9.06,$GPGGA,192202.0,2046.012346,S,04131.995427,W,1,07,1.0,255.0,M,-5.0,M,,*44,$GPGSA,A,3,07,09,13,14,17,22,30,,,,,,2.1,1.0,1.8*35
2024/04/23,16:22:01,9.00,$GPGGA,192203.0,2046.011089,S,04131.992764,W,1,07,1.0,254.7,M,-5.0,M,,*43,$GPGSA,A,3,07,09,13,14,17,22,30,,,,,,2.1,1.0,1.8*35
2024/04/23,16:22:02,9.00,$GPGGA,192204.0,2046.009834,S,04131.990523,W,1,07,1.0,254.7,M,-5.0,M,,*40,$GPGSA,A,3,07,09,13,14,17,22,30,,,,,,2.1,1.0,1.8*35
2024/04/23,16:22:03,8.99,$GPGGA,192205.0,2046.008633,S,04131.988018,W,1,07,1.1,254.5,M,-5.0,M,,*4E,$GPGSA,A,3,07,09,13,14,17,22,30,,,,,,2.3,1.1,2.0*3D
2024/04/23,16:22:04,8.99,$GPGGA,192206.0,2046.007411,S,04131.984943,W,1,08,1.0,254.7,M,-5.0,M,,*47,$GPGSA,A,3,05,07,09,13,14,17,22,30,,,,,2.2,1.0,1.9*32
2024/04/23,16:22:05,9.00,$GPGGA,192207.0,2046.006230,S,04131.982014,W,1,08,1.0,254.7,M,-5.0,M,,*4F,$GPGSA,A,3,05,07,09,13,14,17,22,30,,,,,2.2,1.0,1.9*32
2024/04/23,16:22:06,9.01,$GPGGA,192208.0,2046.005224,S,04131.979168,W,1,08,1.0,254.8,M,-5.0,M,,*47,$GPGSA,A,3,05,07,09,13,14,17,22,30,,,,,2.2,1.0,1.9*32
2024/04/23,16:22:07,9.00,$GPGGA,192209.0,2046.004082,S,04131.976241,W,1,08,1.0,254.7,M,-5.0,M,,*41,$GPGSA,A,3,05,07,09,13,14,17,22,30,,,,,2.2,1.0,1.9*32
2024/04/23,16:22:08,9.02,$GPGGA,192210.0,2046.003400,S,04131.973471,W,1,07,1.0,254.7,M,-5.0,M,,*4F,$GPGSA,A,3,05,07,09,14,17,22,30,,,,,,2.2,1.0,1.9*30
2024/04/23,16:22:09,9.04,$GPGGA,192211.0,2046.002596,S,04131.970559,W,1,09,0.9,255.4,M,-5.0,M,,*4D,$GPGSA,A,3,05,07,09,14,17,19,20,22,30,,,,2.0,0.9,1.8*31
2024/04/23,16:22:10,9.02,$GPGGA,192212.0,2046.002184,S,04131.967766,W,1,09,0.9,256.0,M,-5.0,M,,*46,$GPGSA,A,3,05,07,09,14,17,19,20,22,30,,,,2.0,0.9,1.8*31
2024/04/23,16:22:11,9.05,$GPGGA,192213.0,2046.002094,S,04131.965160,W,1,09,0.9,256.3,M,-5.0,M,,*46,$GPGSA,A,3,05,07,09,14,17,19,20,22,30,,,,2.0,0.9,1.8*31
2024/04/23,16:22:12,9.04,$GPGGA,192214.0,2046.002188,S,04131.961996,W,1,09,1.0,256.3,M,-5.0,M,,*40,$GPGSA,A,3,05,07,09,14,17,19,20,22,30,,,,2.2,1.0,1.9*3A
2024/04/23,16:22:13,9.02,$GPGGA,192215.0,2046.002401,S,04131.959017,W,1,09,1.0,256.3,M,-5.0,M,,*4E,$GPGSA,A,3,05,07,09,14,17,19,20,22,30,,,,2.2,1.0,1.9*3A
2024/04/23,16:22:14,9.00,$GPGGA,192216.0,2046.004029,S,04131.956019,W,1,09,1.0,256.2,M,-5.0,M,,*45,$GPGSA,A,3,05,07,09,14,17,19,20,22,30,,,,2.2,1.0,1.9*3A
2024/04/23,16:22:15,8.96,$GPGGA,192217.0,2046.005089,S,04131.953353,W,1,09,0.9,256.6,M,-5.0,M,,*4B,$GPGSA,A,3,05,07,09,14,17,19,20,22,30,,,,1.8,0.9,1.6*34
2024/04/23,16:22:16,9.00,$GPGGA,192218.0,2046.006077,S,04131.950672,W,1,10,0.9,257.2,M,-5.0,M,,*4E,$GPGSA,A,3,05,07,09,13,14,17,19,20,22,30,,,1.8,0.9,1.6*36
2024/04/23,16:22:17,9.04,$GPGGA,192219.0,2046.006755,S,04131.948064,W,1,10,1.0,257.3,M,-5.0,M,,*49,$GPGSA,A,3,05,07,09,13,14,17,19,20,22,30,,,2.0,1.0,1.7*34
2024/04/23,16:22:18,9.02,$GPGGA,192220.0,2046.008059,S,04131.945289,W,1,10,1.0,257.4,M,-5.0,M,,*4D,$GPGSA,A,3,05,07,09,13,14,17,19,20,22,30,,,2.0,1.0,1.7*34
2024/04/23,16:22:19,8.99,$GPGGA,192221.0,2046.009378,S,04131.942588,W,1,10,1.1,257.9,M,-5.0,M,,*40,$GPGSA,A,3,05,07,09,13,14,17,19,20,22,30,,,2.1,1.1,1.8*3B
2024/04/23,16:22:20,8.99,$GPGGA,192222.0,2046.010620,S,04131.939891,W,1,10,1.0,258.0,M,-5.0,M,,*4D,$GPGSA,A,3,05,07,09,13,14,17,19,20,22,30,,,2.0,1.0,1.7*34
2024/04/23,16:22:21,9.00,$GPGGA,192223.0,2046.011589,S,04131.936567,W,1,10,1.0,258.6,M,-5.0,M,,*40,$GPGSA,A,3,05,07,09,13,14,17,19,20,22,30,,,2.0,1.0,1.7*34
2024/04/23,16:22:22,8.99,$GPGGA,192224.0,2046.012759,S,04131.933607,W,1,10,1.0,259.3,M,-5.0,M,,*4F,$GPGSA,A,3,05,07,09,13,14,17,19,20,22,30,,,2.0,1.0,1.7*34
2024/04/23,16:22:23,8.98,$GPGGA,192225.0,2046.013923,S,04131.930680,W,1,09,1.1,259.7,M,-5.0,M,,*4D,$GPGSA,A,3,05,07,09,13,14,17,20,22,30,,,,2.1,1.1,1.8*33
2024/04/23,16:22:24,8.95,$GPGGA,192226.0,2046.015359,S,04131.928079,W,1,09,1.1,259.9,M,-5.0,M,,*48,$GPGSA,A,3,05,07,09,13,14,17,20,22,30,,,,2.1,1.1,1.8*33
2024/04/23,16:22:25,9.00,$GPGGA,192227.0,2046.016655,S,04131.925099,W,1,09,1.0,260.0,M,-5.0,M,,*42,$GPGSA,A,3,05,07,09,13,14,17,20,22,30,,,,2.0,1.0,1.7*3C
2024/04/23,16:22:26,8.96,$GPGGA,192228.0,2046.017809,S,04131.921977,W,1,09,1.0,260.2,M,-5.0,M,,*44,$GPGSA,A,3,05,07,09,13,14,17,20,22,30,,,,2.0,1.0,1.7*3C
2024/04/23,16:22:27,8.93,$GPGGA,192229.0,2046.018833,S,04131.918617,W,1,09,1.1,260.3,M,-5.0,M,,*40,$GPGSA,A,3,05,07,09,13,14,17,20,22,30,,,,2.1,1.1,1.8*33
2024/04/23,16:22:28,8.97,$GPGGA,192230.0,2046.020337,S,04131.915433,W,1,09,1.1,259.9,M,-5.0,M,,*45,$GPGSA,A,3,05,07,09,13,14,17,20,22,30,,,,2.1,1.1,1.8*33
2024/04/23,16:22:29,9.00,$GPGGA,192231.0,2046.021474,S,04131.912243,W,1,10,0.9,259.5,M,-5.0,M,,*4E,$GPGSA,A,3,05,07,08,09,13,14,17,20,22,30,,,1.6,0.9,1.4*3A
2024/04/23,16:22:30,8.99,$GPGGA,192232.0,2046.022192,S,04131.909652,W,1,10,0.9,259.2,M,-5.0,M,,*4A,$GPGSA,A,3,05,07,08,09,13,14,17,20,22,30,,,1.6,0.9,1.4*3A
2024/04/23,16:22:31,9.09,$GPGGA,192233.0,2046.022127,S,04131.908373,W,1,10,1.0,259.1,M,-5.0,M,,*49,$GPGSA,A,3,05,07,08,09,13,14,17,20,22,30,,,2.0,1.0,1.7*34
2024/04/23,16:22:32,9.02,$GPGGA,192234.0,2046.022357,S,04131.906665,W,1,10,1.0,259.1,M,-5.0,M,,*47,$GPGSA,A,3,05,07,08,09,13,14,17,20,22,30,,,2.0,1.0,1.7*34
2024/04/23,16:22:33,9.03,$GPGGA,192235.0,2046.022542,S,04131.904687,W,1,10,1.0,259.1,M,-5.0,M,,*4A,$GPGSA,A,3,05,07,08,09,13,14,17,20,22,30,,,2.0,1.0,1.7*34
2024/04/23,16:22:34,9.03,$GPGGA,192236.0,2046.022800,S,04131.902202,W,1,10,1.0,259.1,M,-5.0,M,,*4D,$GPGSA,A,3,05,07,08,09,13,14,17,20,22,30,,,2.0,1.0,1.7*34
2024/04/23,16:22:35,9.02,$GPGGA,192237.0,2046.022622,S,04131.899577,W,1,10,1.0,259.2,M,-5.0,M,,*47,$GPGSA,A,3,05,07,08,09,13,14,17,20,22,30,,,2.0,1.0,1.7*34
2024/04/23,16:22:36,8.97,$GPGGA,192238.0,2046.022430,S,04131.896705,W,1,10,1.0,259.0,M,-5.0,M,,*43,$GPGSA,A,3,05,07,08,09,13,14,17,20,22,30,,,2.0,1.0,1.7*34
2024/04/23,16:22:37,9.00,$GPGGA,192239.0,2046.022229,S,04131.894142,W,1,09,1.0,258.9,M,-5.0,M,,*4B,$GPGSA,A,3,05,07,09,13,14,17,20,22,30,,,,2.0,1.0,1.7*3C
2024/04/23,16:22:38,9.04,$GPGGA,192240.0,2046.022236,S,04131.891717,W,1,09,1.0,258.9,M,-5.0,M,,*48,$GPGSA,A,3,05,07,09,13,14,17,20,22,30,,,,2.0,1.0,1.7*3C
2024/04/23,16:22:39,8.98,$GPGGA,192241.0,2046.022516,S,04131.890972,W,1,09,1.0,259.5,M,-5.0,M,,*4D,$GPGSA,A,3,05,07,09,13,14,17,20,22,30,,,,2.0,1.0,1.7*3C
2024/04/23,16:22:40,8.96,$GPGGA,192242.0,2046.022699,S,04131.889792,W,1,09,1.0,259.7,M,-5.0,M,,*40,$GPGSA,A,3,05,07,09,13,14,17,20,22,30,,,,2.0,1.0,1.7*3C
2024/04/23,16:22:41,9.00,$GPGGA,192243.0,2046.022943,S,04131.888738,W,1,09,1.1,260.4,M,-5.0,M,,*40,$GPGSA,A,3,05,07,09,13,14,17,20,22,30,,,,2.1,1.1,1.8*33
2024/04/23,16:22:42,9.02,$GPGGA,192244.0,2046.023284,S,04131.888556,W,1,09,1.1,260.3,M,-5.0,M,,*4B,$GPGSA,A,3,05,07,09,13,14,17,20,22,30,,,,2.1,1.1,1.8*33
2024/04/23,16:22:43,9.01,$GPGGA,192245.0,2046.023511,S,04131.889144,W,1,09,1.1,260.8,M,-5.0,M,,*4C,$GPGSA,A,3,05,07,09,13,14,17,20,22,30,,,,2.3,1.1,1.9*30
2024/04/23,16:22:44,9.01,$GPGGA,192246.0,2046.023675,S,04131.889538,W,1,08,1.0,261.2,M,-5.0,M,,*4A,$GPGSA,A,3,05,07,09,14,17,20,22,30,,,,,2.0,1.0,1.7*3E
2024/04/23,16:22:45,9.00,$GPGGA,192247.0,2046.023772,S,04131.889680,W,1,08,1.0,261.6,M,-5.0,M,,*49,$GPGSA,A,3,05,07,09,14,17,20,22,30,,,,,2.0,1.0,1.7*3E
2024/04/23,16:22:46,9.00,$GPGGA,192248.0,2046.023802,S,04131.889715,W,1,08,1.0,262.0,M,-5.0,M,,*46,$GPGSA,A,3,05,07,09,14,17,20,22,30,,,,,2.0,1.0,1.7*3E
2024/04/23,16:22:47,9.00,$GPGGA,192249.0,2046.023807,S,04131.889670,W,1,08,1.0,262.4,M,-5.0,M,,*44,$GPGSA,A,3,05,07,09,14,17,20,22,30,,,,,2.0,1.0,1.7*3E
2024/04/23,16:22:48,9.02,$GPGGA,192250.0,2046.023825,S,04131.889628,W,1,08,1.0,262.6,M,-5.0,M,,*43,$GPGSA,A,3,05,07,09,14,17,20,22,30,,,,,2.0,1.0,1.7*3E
2024/04/23,16:22:49,9.00,$GPGGA,192251.0,2046.023860,S,04131.889517,W,1,08,1.0,262.5,M,-5.0,M,,*4F,$GPGSA,A,3,05,07,09,14,17,20,22,30,,,,,2.0,1.0,1.7*3E
2024/04/23,16:22:50,9.00,$GPGGA,192252.0,2046.023794,S,04131.888989,W,1,09,1.0,262.4,M,-5.0,M,,*42,$GPGSA,A,3,05,07,09,13,14,17,20,22,30,,,,2.0,1.0,1.7*3C
2024/04/23,16:22:51,9.03,$GPGGA,192253.0,2046.023745,S,04131.888490,W,1,09,1.0,262.3,M,-5.0,M,,*4D,$GPGSA,A,3,05,07,09,13,14,17,20,22,30,,,,2.0,1.0,1.7*3C
2024/04/23,16:22:52,9.02,$GPGGA,192254.0,2046.023664,S,04131.887803,W,1,09,1.0,262.3,M,-5.0,M,,*41,$GPGSA,A,3,05,07,09,13,14,17,20,22,30,,,,2.0,1.0,1.7*3C
2024/04/23,16:22:53,8.99,$GPGGA,192255.0,2046.023137,S,04131.886582,W,1,09,1.0,262.3,M,-5.0,M,,*44,$GPGSA,A,3,05,07,09,13,14,17,20,22,30,,,,2.0,1.0,1.7*3C
2024/04/23,16:22:54,8.97,$GPGGA,192256.0,2046.022223,S,04131.884811,W,1,09,1.0,262.4,M,-5.0,M,,*42,$GPGSA,A,3,05,07,09,13,14,17,20,22,30,,,,2.0,1.0,1.7*3C
2024/04/23,16:22:55,8.94,$GPGGA,192257.0,2046.017986,S,04131.878941,W,1,09,1.0,261.2,M,-5.0,M,,*43,$GPGSA,A,3,05,07,09,13,14,17,20,22,30,,,,2.1,1.0,1.8*32
2024/04/23,16:22:56,8.96,$GPGGA,192258.0,2046.015925,S,04131.876485,W,1,09,1.0,260.7,M,-5.0,M,,*48,$GPGSA,A,3,05,07,09,13,14,17,20,22,30,,,,2.1,1.0,1.8*32
2024/04/23,16:22:57,8.93,$GPGGA,192259.0,2046.014300,S,04131.874729,W,1,09,1.0,260.6,M,-5.0,M,,*43,$GPGSA,A,3,05,07,09,13,14,17,20,22,30,,,,2.1,1.0,1.8*32
2024/04/23,16:22:58,8.96,$GPGGA,192300.0,2046.012772,S,04131.873227,W,1,09,1.0,260.4,M,-5.0,M,,*47,$GPGSA,A,3,05,07,09,13,14,17,20,22,30,,,,2.1,1.0,1.8*32
2024/04/23,16:22:59,8.99,$GPGGA,192301.0,2046.011479,S,04131.871830,W,1,09,1.0,260.2,M,-5.0,M,,*45,$GPGSA,A,3,05,07,09,13,14,17,20,22,30,,,,2.1,1.0,1.8*32
2024/04/23,16:23:00,9.00,$GPGGA,192302.0,2046.010425,S,04131.870910,W,1,09,1.0,260.2,M,-5.0,M,,*4C,$GPGSA,A,3,05,07,09,13,14,17,20,22,30,,,,2.1,1.0,1.8*32
2024/04/23,16:23:01,8.98,$GPGGA,192303.0,2046.008862,S,04131.869371,W,1,08,1.0,259.9,M,-5.0,M,,*4E,$GPGSA,A,3,05,07,09,13,14,17,22,30,,,,,2.1,1.0,1.8*30
2024/04/23,16:23:02,8.97,$GPGGA,192304.0,2046.007433,S,04131.868005,W,1,08,1.0,259.7,M,-5.0,M,,*41,$GPGSA,A,3,05,07,09,13,14,17,22,30,,,,,2.1,1.0,1.8*30
2024/04/23,16:23:03,8.97,$GPGGA,192305.0,2046.006366,S,04131.866841,W,1,08,1.0,259.6,M,-5.0,M,,*41,$GPGSA,A,3,05,07,09,13,14,17,22,30,,,,,2.1,1.0,1.8*30
2024/04/23,16:23:04,8.97,$GPGGA,192306.0,2046.005859,S,04131.866209,W,1,08,1.0,259.6,M,-5.0,M,,*40,$GPGSA,A,3,05,07,09,13,14,17,22,30,,,,,2.1,1.0,1.8*30
2024/04/23,16:23:05,8.97,$GPGGA,192307.0,2046.005684,S,04131.865687,W,1,08,1.0,259.5,M,-5.0,M,,*4D,$GPGSA,A,3,05,07,09,13,14,17,22,30,,,,,2.1,1.0,1.8*30
2024/04/23,16:23:06,8.96,$GPGGA,192308.0,2046.005480,S,04131.865577,W,1,08,1.0,259.7,M,-5.0,M,,*4A,$GPGSA,A,3,05,07,09,13,14,17,22,30,,,,,2.1,1.0,1.8*30
2024/04/23,16:23:07,8.96,$GPGGA,192309.0,2046.005094,S,04131.865140,W,1,09,1.0,259.8,M,-5.0,M,,*44,$GPGSA,A,3,05,07,09,13,14,17,20,22,30,,,,2.0,1.0,1.7*3C
2024/04/23,16:23:08,8.95,$GPGGA,192310.0,2046.004933,S,04131.864807,W,1,09,1.0,260.0,M,-5.0,M,,*40,$GPGSA,A,3,05,07,09,13,14,17,20,22,30,,,,2.0,1.0,1.7*3C
2024/04/23,16:23:09,8.94,$GPGGA,192311.0,2046.004826,S,04131.864546,W,1,09,1.0,260.1,M,-5.0,M,,*4D,$GPGSA,A,3,05,07,09,13,14,17,20,22,30,,,,2.0,1.0,1.7*3C
2024/04/23,16:23:10,8.95,$GPGGA,192312.0,2046.004798,S,04131.864358,W,1,09,1.0,260.0,M,-5.0,M,,*4C,$GPGSA,A,3,05,07,09,13,14,17,20,22,30,,,,2.0,1.0,1.7*3C
2024/04/23,16:23:11,8.95,$GPGGA,192313.0,2046.004753,S,04131.864219,W,1,09,1.0,260.0,M,-5.0,M,,*4E,$GPGSA,A,3,05,07,09,13,14,17,20,22,30,,,,2.1,1.0,1.8*32
2024/04/23,16:23:12,8.97,$GPGGA,192314.0,2046.004741,S,04131.864033,W,1,09,1.0,260.4,M,-5.0,M,,*44,$GPGSA,A,3,05,07,09,13,14,17,20,22,30,,,,2.0,1.0,1.7*3C
2024/04/23,16:23:13,8.98,$GPGGA,192315.0,2046.004483,S,04131.863667,W,1,09,1.0,260.6,M,-5.0,M,,*4A,$GPGSA,A,3,05,07,09,13,14,17,20,22,30,,,,2.0,1.0,1.7*3C
2024/04/23,16:23:14,8.94,$GPGGA,192316.0,2046.003961,S,04131.863180,W,1,09,1.0,260.3,M,-5.0,M,,*44,$GPGSA,A,3,05,07,09,13,14,17,20,22,30,,,,2.0,1.0,1.7*3C
2024/04/23,16:23:15,8.94,$GPGGA,192317.0,2046.003066,S,04131.862381,W,1,09,1.0,260.1,M,-5.0,M,,*4B,$GPGSA,A,3,05,07,09,13,14,17,20,22,30,,,,2.0,1.0,1.7*3C
2024/04/23,16:23:16,8.94,$GPGGA,192318.0,2045.998028,S,04131.858061,W,1,09,1.0,259.9,M,-5.0,M,,*40,$GPGSA,A,3,05,07,09,13,14,17,20,22,30,,,,2.1,1.0,1.8*32
2024/04/23,16:23:17,8.92,$GPGGA,192319.0,2045.995503,S,04131.855866,W,1,09,1.0,259.3,M,-5.0,M,,*48,$GPGSA,A,3,05,07,09,13,14,17,20,22,30,,,,2.1,1.0,1.8*32
2024/04/23,16:23:18,8.98,$GPGGA,192320.0,2045.992737,S,04131.854074,W,1,09,1.2,259.0,M,-5.0,M,,*4B,$GPGSA,A,3,05,07,09,13,14,17,20,22,30,,,,2.4,1.2,2.1*3F
2024/04/23,16:23:19,9.01,$GPGGA,192321.0,2045.989939,S,04131.852476,W,1,08,1.1,258.6,M,-5.0,M,,*45,$GPGSA,A,3,05,07,09,13,14,17,22,30,,,,,2.0,1.1,1.8*30
2024/04/23,16:23:20,9.02,$GPGGA,192322.0,2045.987439,S,04131.851064,W,1,08,1.1,258.8,M,-5.0,M,,*4F,$GPGSA,A,3,07,09,13,14,17,19,22,30,,,,,2.0,1.1,1.8*3D
2024/04/23,16:23:21,8.98,$GPGGA,192323.0,2045.984619,S,04131.849811,W,1,08,1.1,258.9,M,-5.0,M,,*4F,$GPGSA,A,3,07,09,13,14,17,19,22,30,,,,,2.0,1.1,1.8*3D
2024/04/23,16:23:22,8.98,$GPGGA,192324.0,2045.981331,S,04131.849144,W,1,08,1.1,259.0,M,-5.0,M,,*43,$GPGSA,A,3,07,09,13,14,17,19,22,30,,,,,2.0,1.1,1.8*3D
2024/04/23,16:23:23,8.98,$GPGGA,192325.0,2045.978452,S,04131.848245,W,1,08,1.1,259.5,M,-5.0,M,,*40,$GPGSA,A,3,07,09,13,14,17,19,22,30,,,,,2.0,1.1,1.8*3D
2024/04/23,16:23:24,8.97,$GPGGA,192326.0,2045.976694,S,04131.847926,W,1,08,1.1,259.5,M,-5.0,M,,*44,$GPGSA,A,3,07,09,13,14,17,19,22,30,,,,,2.0,1.1,1.8*3D
2024/04/23,16:23:25,9.02,$GPGGA,192327.0,2045.975211,S,04131.847704,W,1,08,1.1,259.8,M,-5.0,M,,*4C,$GPGSA,A,3,07,09,13,14,17,19,22,30,,,,,2.0,1.1,1.8*3D
2024/04/23,16:23:26,8.99,$GPGGA,192328.0,2045.974105,S,04131.847543,W,1,08,1.1,259.7,M,-5.0,M,,*4A,$GPGSA,A,3,07,09,13,14,17,19,22,30,,,,,2.0,1.1,1.8*3D
2024/04/23,16:23:27,8.99,$GPGGA,192329.0,2045.972482,S,04131.847380,W,1,08,1.1,260.0,M,-5.0,M,,*43,$GPGSA,A,3,07,09,13,14,17,19,22,30,,,,,2.0,1.1,1.8*3D
2024/04/23,16:23:28,9.02,$GPGGA,192330.0,2045.969937,S,04131.846742,W,1,08,1.1,260.2,M,-5.0,M,,*4B,$GPGSA,A,3,07,09,13,14,17,19,22,30,,,,,2.0,1.1,1.8*3D
2024/04/23,16:23:29,8.99,$GPGGA,192331.0,2045.967416,S,04131.846448,W,1,08,0.9,260.1,M,-5.0,M,,*49,$GPGSA,A,3,07,09,13,14,17,19,22,30,,,,,1.9,0.9,1.7*31
2024/04/23,16:23:30,8.99,$GPGGA,192332.0,2045.964574,S,04131.846016,W,1,08,1.1,260.0,M,-5.0,M,,*4B,$GPGSA,A,3,07,09,13,14,17,19,22,30,,,,,2.1,1.1,1.8*3C
2024/04/23,16:23:31,8.99,$GPGGA,192333.0,2045.961755,S,04131.845386,W,1,08,1.0,259.9,M,-5.0,M,,*45,$GPGSA,A,3,07,09,13,14,17,19,22,30,,,,,2.0,1.0,1.7*33
2024/04/23,16:23:32,8.96,$GPGGA,192334.0,2045.958881,S,04131.845121,W,1,08,1.0,259.6,M,-5.0,M,,*4E,$GPGSA,A,3,07,09,13,14,17,19,22,30,,,,,2.0,1.0,1.7*33
2024/04/23,16:23:33,8.96,$GPGGA,192335.0,2045.955551,S,04131.844664,W,1,08,0.9,260.1,M,-5.0,M,,*40,$GPGSA,A,3,07,09,13,14,17,19,22,30,,,,,1.9,0.9,1.7*31
2024/04/23,16:23:34,8.95,$GPGGA,192336.0,2045.951907,S,04131.844216,W,1,08,1.1,260.5,M,-5.0,M,,*44,$GPGSA,A,3,07,09,13,14,17,19,22,30,,,,,2.1,1.1,1.8*3C
2024/04/23,16:23:35,8.95,$GPGGA,192337.0,2045.948345,S,04131.843600,W,1,08,1.1,260.6,M,-5.0,M,,*46,$GPGSA,A,3,07,09,13,14,17,19,22,30,,,,,2.1,1.1,1.8*3C
2024/04/23,16:23:36,8.97,$GPGGA,192338.0,2045.944718,S,04131.842684,W,1,08,1.1,260.9,M,-5.0,M,,*4B,$GPGSA,A,3,07,09,13,14,17,19,22,30,,,,,2.1,1.1,1.8*3C
2024/04/23,16:23:37,8.98,$GPGGA,192339.0,2045.940922,S,04131.842013,W,1,08,1.1,261.0,M,-5.0,M,,*49,$GPGSA,A,3,07,09,13,14,17,19,22,30,,,,,2.1,1.1,1.8*3C
