MES=0.40; ; ; ; V/m; 3.59V; ;533.00;-82.00;118.00;25.07;63.87 -->27/03/24 08:04:29*;
MES=0.40; ; ; ; V/m; 3.59V; ;41.00;114.00;53.00;25.07;63.87 -->27/03/24 08:04:29*;
MES=0.43; ; ; ; V/m; 3.59V; ;-25.00;-9.00;-238.00;25.07;63.87 -->27/03/24 08:04:29*;
MES=0.42; ; ; ; V/m; 3.59V; ;28.00;-41.00;189.00;25.07;63.87 -->27/03/24 08:04:30*;
MES=0.42; ; ; ; V/m; 3.59V; ;-25.00;67.00;-130.00;25.07;63.87 -->27/03/24 08:04:30*;
MES=0.43; ; ; ; V/m; 3.59V; ;-117.00;64.00;-8.00;25.07;63.87 -->27/03/24 08:04:30*;
MES=0.51; ; ; ; V/m; 3.59V; $GNRMC,120431.809,V,,,,,0.00,0.00,270324,,,N*57;;129.00;-83.00;201.00;25.07;63.87 -->27/03/24 08:04:30*;
MES=0.50; ; ; ; V/m; 3.59V; $GNRMC,120431.809,V,,,,,0.00,0.00,270324,,,N*57;;-22.00;-26.00;-250.00;25.07;63.87 -->27/03/24 08:04:31*;
MES=0.48; ; ; ; V/m; 3.59V; $GNRMC,120431.809,V,,,,,0.00,0.00,270324,,,N*57;;45.00;20.00;150.00;25.07;63.87 -->27/03/24 08:04:31*;
MES=0.41; ; ; ; V/m; 3.59V; $GNRMC,120431.809,V,,,,,0.00,0.00,270324,,,N*57;;-23.00;-1.00;-42.00;25.07;63.87 -->27/03/24 08:04:31*;
MES=0.36; ; ; ; V/m; 3.59V; $GNRMC,120432.809,V,,,,,0.00,0.00,270324,,,N*54;;-35.00;18.00;54.00;25.07;63.87 -->27/03/24 08:04:31*;
MES=0.36; ; ; ; V/m; 3.59V; $GNRMC,120432.809,V,,,,,0.00,0.00,270324,,,N*54;;18.00;-10.00;-70.00;25.07;63.87 -->27/03/24 08:04:32*;
MES=0.34; ; ; ; V/m; 3.59V; $GNRMC,120432.809,V,,,,,0.00,0.00,270324,,,N*54;;34.00;-23.00;48.00;25.07;63.87 -->27/03/24 08:04:32*;
MES=0.34; ; ; ; V/m; 3.59V; $GNRMC,120432.809,V,,,,,0.00,0.00,270324,,,N*54;;-34.00;12.00;-11.00;25.07;63.87 -->27/03/24 08:04:32*;
MES=0.39; ; ; ; V/m; 3.59V; $GNRMC,120433.809,V,,,,,0.00,0.00,270324,,,N*55;;-5.00;65.00;-46.00;25.07;63.87 -->27/03/24 08:04:32*;
MES=0.39; ; ; ; V/m; 3.59V; $GNRMC,120433.809,V,,,,,0.00,0.00,270324,,,N*55;;25.00;5.00;85.00;25.07;63.87 -->27/03/24 08:04:33*;
MES=0.40; ; ; ; V/m; 3.59V; $GNRMC,120433.809,V,,,,,0.00,0.00,270324,,,N*55;;26.00;43.00;74.00;25.07;63.87 -->27/03/24 08:04:33*;
MES=0.43; ; ; ; V/m; 3.59V; $GNRMC,120434.809,V,,,,,0.00,0.00,270324,,,N*52;;-24.00;-59.00;-17.00;25.07;63.87 -->27/03/24 08:04:33*;
MES=0.43; ; ; ; V/m; 3.59V; $GNRMC,120434.809,V,,,,,0.00,0.00,270324,,,N*52;;-14.00;-64.00;-56.00;25.07;63.87 -->27/03/24 08:04:34*;
MES=0.45; ; ; ; V/m; 3.59V; $GNRMC,120434.809,V,,,,,0.00,0.00,270324,,,N*52;;33.00;4.00;0.00;25.07;63.87 -->27/03/24 08:04:34*;
MES=0.45; ; ; ; V/m; 3.59V; $GNRMC,120434.809,V,,,,,0.00,0.00,270324,,,N*52;;-43.00;26.00;-55.00;25.07;63.87 -->27/03/24 08:04:34*;
MES=0.50; ; ; ; V/m; 3.59V; $GNRMC,120435.809,V,,,,,0.00,0.00,270324,,,N*53;;29.00;30.00;57.00;25.07;63.87 -->27/03/24 08:04:34*;
MES=0.43; ; ; ; V/m; 3.59V; $GNRMC,120435.809,V,,,,,0.00,0.00,270324,,,N*53;;-33.00;-79.00;-119.00;25.07;63.87 -->27/03/24 08:04:35*;
MES=0.39; ; ; ; V/m; 3.59V; $GNRMC,120435.809,V,,,,,0.00,0.00,270324,,,N*53;;49.00;92.00;-15.00;25.07;63.87 -->27/03/24 08:04:35*;
MES=0.39; ; ; ; V/m; 3.59V; $GNRMC,120435.809,V,,,,,0.00,0.00,270324,,,N*53;;-107.00;47.00;31.00;25.07;63.87 -->27/03/24 08:04:35*;
MES=0.34; ; ; ; V/m; 3.59V; $GNRMC,120436.809,V,,,,,0.00,0.00,270324,,,N*50;;122.00;-32.00;58.00;25.07;63.87 -->27/03/24 08:04:35*;
MES=0.34; ; ; ; V/m; 3.59V; $GNRMC,120436.809,V,,,,,0.00,0.00,270324,,,N*50;;-86.00;-70.00;-31.00;25.07;63.87 -->27/03/24 08:04:36*;
MES=0.34; ; ; ; V/m; 3.59V; $GNRMC,120436.809,V,,,,,0.00,0.00,270324,,,N*50;;11.00;20.00;27.00;25.07;63.87 -->27/03/24 08:04:36*;
MES=0.35; ; ; ; V/m; 3.59V; $GNRMC,120436.809,V,,,,,0.00,0.00,270324,,,N*50;;61.00;18.00;-38.00;25.07;63.87 -->27/03/24 08:04:36*;
MES=0.35; ; ; ; V/m; 3.59V; $GNRMC,120437.809,V,,,,,0.00,0.00,270324,,,N*51;;-17.00;-4.00;29.00;25.07;63.87 -->27/03/24 08:04:36*;
MES=0.33; ; ; ; V/m; 3.59V; $GNRMC,120437.809,V,,,,,0.00,0.00,270324,,,N*51;;-40.00;-9.00;42.00;25.07;63.87 -->27/03/24 08:04:37*;
MES=0.33; ; ; ; V/m; 3.59V; $GNRMC,120437.809,V,,,,,0.00,0.00,270324,,,N*51;;-3.00;-6.00;-25.00;25.07;63.87 -->27/03/24 08:04:37*;
MES=0.34; ; ; ; V/m; 3.59V; $GNRMC,120437.809,V,,,,,0.00,0.00,270324,,,N*51;;32.00;-33.00;-6.00;25.07;63.87 -->27/03/24 08:04:37*;
MES=0.41; ; ; ; V/m; 3.59V; $GNRMC,120438.809,V,,,,,0.00,0.00,270324,,,N*5E;;24.00;14.00;47.00;25.07;63.87 -->27/03/24 08:04:38*;
MES=0.41; ; ; ; V/m; 3.59V; $GNRMC,120438.809,V,,,,,0.00,0.00,270324,,,N*5E;;-35.00;21.00;-31.00;25.07;63.87 -->27/03/24 08:04:38*;
MES=0.40; ; ; ; V/m; 3.59V; $GNRMC,120438.809,V,,,,,0.00,0.00,270324,,,N*5E;;-3.00;-3.00;-46.00;25.07;63.87 -->27/03/24 08:04:38*;
MES=0.38; ; ; ; V/m; 3.59V; $GNRMC,120439.809,V,,,,,0.00,0.00,270324,,,N*5F;;20.00;60.00;76.00;25.07;63.87 -->27/03/24 08:04:38*;
MES=0.36; ; ; ; V/m; 3.59V; $GNRMC,120439.809,V,,,,,0.00,0.00,270324,,,N*5F;;-25.00;-50.00;-17.00;25.07;63.87 -->27/03/24 08:04:39*;
MES=0.36; ; ; ; V/m; 3.59V; $GNRMC,120439.809,V,,,,,0.00,0.00,270324,,,N*5F;;-22.00;32.00;-53.00;25.07;63.87 -->27/03/24 08:04:39*;
MES=0.31; ; ; ; V/m; 3.59V; $GNRMC,120439.809,V,,,,,0.00,0.00,270324,,,N*5F;;52.00;-32.00;10.00;25.07;63.87 -->27/03/24 08:04:39*;
MES=0.31; ; ; ; V/m; 3.59V; $GNRMC,120440.809,V,,,,,0.00,0.00,270324,,,N*51;;-11.00;-4.00;24.00;25.07;63.87 -->27/03/24 08:04:39*;
MES=0.34; ; ; ; V/m; 3.59V; $GNRMC,120440.809,V,,,,,0.00,0.00,270324,,,N*51;;-40.00;-36.00;-26.00;25.07;63.87 -->27/03/24 08:04:40*;
MES=0.32; ; ; ; V/m; 3.59V; $GNRMC,120440.809,V,,,,,0.00,0.00,270324,,,N*51;;54.00;54.00;24.00;25.07;63.87 -->27/03/24 08:04:40*;
MES=0.32; ; ; ; V/m; 3.59V; $GNRMC,120440.809,V,,,,,0.00,0.00,270324,,,N*51;;-42.00;-54.00;-17.00;25.07;63.87 -->27/03/24 08:04:40*;
MES=0.31; ; ; ; V/m; 3.59V; $GNRMC,120441.809,V,,,,,0.00,0.00,270324,,,N*50;;-31.00;20.00;17.00;25.07;63.87 -->27/03/24 08:04:41*;
MES=0.31; ; ; ; V/m; 3.59V; $GNRMC,120442.021,V,,,,,0.00,0.00,270324,,,N*51;;56.00;15.00;4.00;25.07;63.87 -->27/03/24 08:04:41*;
MES=0.32; ; ; ; V/m; 3.59V; $GNRMC,120442.021,V,,,,,0.00,0.00,270324,,,N*51;;17.00;22.00;8.00;25.07;63.87 -->27/03/24 08:04:41*;
MES=0.32; ; ; ; V/m; 3.59V; $GNRMC,120442.021,V,,,,,0.00,0.00,270324,,,N*51;;-71.00;-50.00;-55.00;25.07;63.87 -->27/03/24 08:04:41*;
MES=0.36; ; ; ; V/m; 3.59V; $GNRMC,120443.021,V,,,,,0.00,0.00,270324,,,N*50;;97.00;26.00;88.00;25.07;63.87 -->27/03/24 08:04:42*;
MES=0.41; ; ; ; V/m; 3.59V; $GNRMC,120443.021,V,,,,,0.00,0.00,270324,,,N*50;;-39.00;-39.00;-3.00;25.07;63.87 -->27/03/24 08:04:42*;
MES=0.41; ; ; ; V/m; 3.59V; $GNRMC,120443.021,V,,,,,0.00,0.00,270324,,,N*50;;-6.00;31.00;-20.00;25.07;63.87 -->27/03/24 08:04:42*;
MES=0.47; ; ; ; V/m; 3.59V; $GNRMC,120443.021,V,,,,,0.00,0.00,270324,,,N*50;;10.00;20.00;22.00;25.07;63.87 -->27/03/24 08:04:42*;
MES=0.50; ; ; ; V/m; 3.59V; $GNRMC,120444.117,V,,,,,0.00,0.00,270324,,,N*53;;-3.00;-24.00;-16.00;25.07;63.87 -->27/03/24 08:04:43*;
MES=0.43; ; ; ; V/m; 3.59V; $GNRMC,120444.117,V,,,,,0.00,0.00,270324,,,N*53;;-15.00;42.00;14.00;25.07;63.87 -->27/03/24 08:04:43*;
MES=0.43; ; ; ; V/m; 3.59V; $GNRMC,120444.117,V,,,,,0.00,0.00,270324,,,N*53;;23.00;-18.00;-72.00;25.07;63.87 -->27/03/24 08:04:43*;
MES=0.34; ; ; ; V/m; 3.59V; $GNRMC,120444.117,V,,,,,0.00,0.00,270324,,,N*53;;-14.00;8.00;82.00;25.07;63.87 -->27/03/24 08:04:43*;
MES=0.32; ; ; ; V/m; 3.59V; $GNRMC,120445.117,V,,,,,0.00,0.00,270324,,,N*52;;2.00;-45.00;-19.00;25.07;63.87 -->27/03/24 08:04:44*;
MES=0.11; ; ; ; V/m; 3.58V; $GNRMC,120445.117,V,,,,,0.00,0.00,270324,,,N*52;;14.00;22.00;-43.00;25.07;63.87 -->27/03/24 08:04:44*;
MES=0.00; ; ; ; V/m; 3.58V; $GNRMC,120445.117,V,,,,,0.00,0.00,270324,,,N*52;;-58.00;-41.00;14.00;25.07;63.87 -->27/03/24 08:04:44*;
MES=0.00; ; ; ; V/m; 3.58V; $GNRMC,120445.117,V,,,,,0.00,0.00,270324,,,N*52;;76.00;51.00;7.00;25.07;63.87 -->27/03/24 08:04:45*;
MES=0.00; ; ; ; V/m; 3.58V; $GNRMC,120446.117,V,,,,,0.00,0.00,270324,,,N*51;;-67.00;-16.00;31.00;25.07;63.87 -->27/03/24 08:04:45*;
MES=0.00; ; ; ; V/m; 3.58V; $GNRMC,120446.117,V,,,,,0.00,0.00,270324,,,N*51;;48.00;56.00;7.00;25.07;63.87 -->27/03/24 08:04:45*;
MES=0.20; ; ; ; V/m; 3.58V; $GNRMC,120446.117,V,,,,,0.00,0.00,270324,,,N*51;;-47.00;-87.00;-45.00;25.07;63.87 -->27/03/24 08:04:45*;
MES=0.31; ; ; ; V/m; 3.58V; $GNRMC,120446.117,V,,,,,0.00,0.00,270324,,,N*51;;32.00;36.00;-46.00;25.07;63.87 -->27/03/24 08:04:46*;
MES=0.31; ; ; ; V/m; 3.58V; $GNRMC,120447.117,V,,,,,0.00,0.00,270324,,,N*50;;-73.00;46.00;45.00;25.07;63.87 -->27/03/24 08:04:46*;
MES=0.39; ; ; ; V/m; 3.58V; $GNRMC,120447.117,V,,,,,0.00,0.00,270324,,,N*50;;4.00;-36.00;0.00;25.07;63.87 -->27/03/24 08:04:46*;
MES=0.48; ; ; ; V/m; 3.58V; $GNRMC,120447.117,V,,,,,0.00,0.00,270324,,,N*50;;118.00;12.00;28.00;25.07;63.87 -->27/03/24 08:04:46*;
MES=0.41; ; ; ; V/m; 3.58V; $GNRMC,120448.083,V,,,,,0.00,0.00,270324,,,N*53;;-53.00;22.00;-14.00;25.07;63.87 -->27/03/24 08:04:47*;
MES=0.35; ; ; ; V/m; 3.58V; $GNRMC,120448.083,V,,,,,0.00,0.00,270324,,,N*53;;50.00;-5.00;86.00;25.07;63.87 -->27/03/24 08:04:47*;
MES=0.31; ; ; ; V/m; 3.58V; $GNRMC,120448.302,V,,,,,0.00,0.00,270324,,,N*59;;-97.00;-47.00;-95.00;25.07;63.87 -->27/03/24 08:04:47*;
MES=0.19; ; ; ; V/m; 3.58V; $GNRMC,120448.302,V,,,,,0.00,0.00,270324,,,N*59;;72.00;-36.00;-95.00;25.07;63.87 -->27/03/24 08:04:47*;
MES=0.19; ; ; ; V/m; 3.58V; $GNRMC,120448.302,V,,,,,0.00,0.00,270324,,,N*59;;-37.00;41.00;42.00;25.07;63.87 -->27/03/24 08:04:48*;
MES=0.21; ; ; ; V/m; 3.58V; $GNRMC,120449.302,V,,,,,0.00,0.00,270324,,,N*58;;34.00;79.00;64.00;25.07;63.87 -->27/03/24 08:04:48*;
MES=0.21; ; ; ; V/m; 3.58V; $GNRMC,120449.302,V,,,,,0.00,0.00,270324,,,N*58;;-38.00;-64.00;3.00;25.07;63.87 -->27/03/24 08:04:48*;
MES=0.25; ; ; ; V/m; 3.58V; $GNRMC,120449.302,V,,,,,0.00,0.00,270324,,,N*58;;42.00;-38.00;15.00;25.07;63.87 -->27/03/24 08:04:49*;
MES=0.29; ; ; ; V/m; 3.58V; $GNRMC,120450.302,V,,,,,0.00,0.00,270324,,,N*50;;0.00;38.00;-74.00;25.07;63.87 -->27/03/24 08:04:49*;
MES=0.32; ; ; ; V/m; 3.58V; $GNRMC,120450.302,V,,,,,0.00,0.00,270324,,,N*50;;-50.00;2.00;1.00;25.07;63.87 -->27/03/24 08:04:49*;
MES=0.32; ; ; ; V/m; 3.58V; $GNRMC,120450.302,V,,,,,0.00,0.00,270324,,,N*50;;-5.00;-10.00;24.00;25.07;63.87 -->27/03/24 08:04:49*;
MES=0.35; ; ; ; V/m; 3.58V; $GNRMC,120450.302,V,,,,,0.00,0.00,270324,,,N*50;;-7.00;-69.00;-122.00;25.07;63.87 -->27/03/24 08:04:50*;
MES=0.34; ; ; ; V/m; 3.58V; $GNRMC,120451.302,V,,,,,0.00,0.00,270324,,,N*51;;20.00;107.00;195.00;25.07;63.87 -->27/03/24 08:04:50*;
MES=0.34; ; ; ; V/m; 3.58V; $GNRMC,120451.302,V,,,,,0.00,0.00,270324,,,N*51;;-1.00;-103.00;-112.00;25.07;63.87 -->27/03/24 08:04:50*;
MES=0.37; ; ; ; V/m; 3.58V; $GNRMC,120451.302,V,,,,,0.00,0.00,270324,,,N*51;;21.00;159.00;208.00;25.07;63.87 -->27/03/24 08:04:50*;
MES=0.37; ; ; ; V/m; 3.58V; $GNRMC,120451.302,V,,,,,0.00,0.00,270324,,,N*51;;-37.00;-27.00;29.00;25.07;63.87 -->27/03/24 08:04:51*;
MES=0.33; ; ; ; V/m; 3.58V; $GNRMC,120452.302,V,,,,,0.00,0.00,270324,,,N*52;;53.00;-147.00;-183.00;25.07;63.87 -->27/03/24 08:04:51*;
MES=0.33; ; ; ; V/m; 3.58V; $GNRMC,120452.302,V,,,,,0.00,0.00,270324,,,N*52;;10.00;76.00;64.00;25.07;63.87 -->27/03/24 08:04:51*;
MES=0.39; ; ; ; V/m; 3.58V; $GNRMC,120452.302,V,,,,,0.00,0.00,270324,,,N*52;;-76.00;-31.00;-18.00;25.07;63.87 -->27/03/24 08:04:51*;
MES=0.34; ; ; ; V/m; 3.58V; $GNRMC,120452.302,V,,,,,0.00,0.00,270324,,,N*52;;62.00;58.00;-53.00;25.07;63.87 -->27/03/24 08:04:52*;
MES=0.34; ; ; ; V/m; 3.58V; $GNRMC,120453.302,V,,,,,0.00,0.00,270324,,,N*53;;-14.00;-27.00;-67.00;25.07;63.87 -->27/03/24 08:04:52*;
MES=0.32; ; ; ; V/m; 3.58V; $GNRMC,120453.302,V,,,,,0.00,0.00,270324,,,N*53;;1.00;41.00;85.00;25.07;63.87 -->27/03/24 08:04:52*;
MES=0.32; ; ; ; V/m; 3.58V; $GNRMC,120453.302,V,,,,,0.00,0.00,270324,,,N*53;;-10.00;-74.00;-39.00;25.07;63.87 -->27/03/24 08:04:53*;
MES=0.33; ; ; ; V/m; 3.58V; $GNRMC,120454.089,V,,,,,0.00,0.00,270324,,,N*54;;5.00;68.00;22.00;25.07;63.87 -->27/03/24 08:04:53*;
MES=0.34; ; ; ; V/m; 3.58V; $GNRMC,120454.089,V,,,,,0.00,0.00,270324,,,N*54;;-7.00;-68.00;9.00;25.07;63.87 -->27/03/24 08:04:53*;
MES=0.33; ; ; ; V/m; 3.58V; $GNRMC,120454.089,V,,,,,0.00,0.00,270324,,,N*54;;11.00;18.00;-38.00;25.07;63.87 -->27/03/24 08:04:53*;
MES=0.33; ; ; ; V/m; 3.58V; $GNRMC,120455.089,V,,,,,0.00,0.00,270324,,,N*55;;2.00;14.00;7.00;25.07;63.87 -->27/03/24 08:04:54*;
MES=0.35; ; ; ; V/m; 3.58V; $GNRMC,120455.089,V,,,,,0.00,0.00,270324,,,N*55;;-17.00;30.00;3.00;25.07;63.87 -->27/03/24 08:04:54*;
MES=0.35; ; ; ; V/m; 3.58V; $GNRMC,120455.089,V,,,,,0.00,0.00,270324,,,N*55;;28.00;-35.00;-54.00;25.07;63.87 -->27/03/24 08:04:54*;
MES=0.35; ; ; ; V/m; 3.58V; $GNRMC,120455.089,V,,,,,0.00,0.00,270324,,,N*55;;-9.00;16.00;100.00;25.07;63.87 -->27/03/24 08:04:54*;
MES=0.36; ; ; ; V/m; 3.58V; $GNRMC,120456.096,V,,,,,0.09,0.00,270324,,,N*51;;7.00;-21.00;0.00;25.07;63.87 -->27/03/24 08:04:55*;
MES=0.35; ; ; ; V/m; 3.58V; $GNRMC,120456.096,V,,,,,0.09,0.00,270324,,,N*51;;-2.00;-7.00;-73.00;25.07;63.87 -->27/03/24 08:04:55*;
MES=0.35; ; ; ; V/m; 3.58V; $GNRMC,120456.096,V,,,,,0.09,0.00,270324,,,N*51;;-8.00;30.00;39.00;25.07;63.87 -->27/03/24 08:04:55*;
MES=0.36; ; ; ; V/m; 3.58V; $GNRMC,120456.096,V,,,,,0.09,0.00,270324,,,N*51;;18.00;-13.00;-25.00;25.07;63.87 -->27/03/24 08:04:56*;
MES=0.37; ; ; ; V/m; 3.58V; $GNRMC,120456.096,V,,,,,0.09,0.00,270324,,,N*51;;21.00;67.00;62.00;25.07;63.87 -->27/03/24 08:04:56*;
MES=0.40; ; ; ; V/m; 3.58V; $GNRMC,120457.096,A,2127.3890,S,05422.7860,W,14.59,14.76,270324,,,A*74;;-34.00;-67.00;-76.00;25.07;63.87 -->27/03/24 08:04:56*;
MES=0.38; ; ; ; V/m; 3.58V; $GNRMC,120457.096,A,2127.3890,S,05422.7860,W,14.59,14.76,270324,,,A*74;;3.00;88.00;-26.00;25.07;63.87 -->27/03/24 08:04:56*;
MES=0.37; ; ; ; V/m; 3.58V; $GNRMC,120457.096,A,2127.3890,S,05422.7860,W,14.59,14.76,270324,,,A*74;;45.00;-35.00;76.00;25.07;63.87 -->27/03/24 08:04:57*;
MES=0.37; ; ; ; V/m; 3.58V; $GNRMC,120457.096,A,2127.3890,S,05422.7860,W,14.59,14.76,270324,,,A*74;;-34.00;16.00;120.00;25.07;63.87 -->27/03/24 08:04:57*;
MES=0.37; ; ; ; V/m; 3.58V; $GNRMC,120457.096,A,2127.3890,S,05422.7860,W,14.59,14.76,270324,,,A*74;;-33.00;-64.00;-145.00;25.07;63.87 -->27/03/24 08:04:57*;
MES=0.34; ; ; ; V/m; 3.58V; $GNRMC,120457.096,A,2127.3890,S,05422.7860,W,14.59,14.76,270324,,,A*74;;-14.00;17.00;10.00;25.07;63.87 -->27/03/24 08:04:57*;
MES=0.34; ; ; ; V/m; 3.58V; $GNRMC,120457.096,A,2127.3890,S,05422.7860,W,14.59,14.76,270324,,,A*74;;17.00;-43.00;2.00;25.07;63.87 -->27/03/24 08:04:58*;
MES=0.38; ; ; ; V/m; 3.58V; $GNRMC,120459.000,A,2127.3809,S,05422.7821,W,14.56,19.29,270324,,,A*78;;-7.00;33.00;-27.00;25.07;63.87 -->27/03/24 08:04:58*;
MES=0.37; ; ; ; V/m; 3.58V; $GNRMC,120459.000,A,2127.3809,S,05422.7821,W,14.56,19.29,270324,,,A*78;;-1.00;71.00;-16.00;25.07;63.87 -->27/03/24 08:04:58*;
MES=0.37; ; ; ; V/m; 3.58V; $GNRMC,120459.000,A,2127.3809,S,05422.7821,W,14.56,19.29,270324,,,A*78;;-12.00;-52.00;-14.00;25.07;63.87 -->27/03/24 08:04:58*;
MES=0.37; ; ; ; V/m; 3.58V; $GNRMC,120500.000,A,2127.3776,S,05422.7812,W,14.13,18.06,270324,,,A*7F;;-4.00;61.00;63.00;25.07;63.87 -->27/03/24 08:04:59*;
MES=0.36; ; ; ; V/m; 3.58V; $GNRMC,120500.000,A,2127.3776,S,05422.7812,W,14.13,18.06,270324,,,A*7F;;9.00;-19.00;-26.00;25.07;63.87 -->27/03/24 08:04:59*;
MES=0.34; ; ; ; V/m; 3.58V; $GNRMC,120500.000,A,2127.3776,S,05422.7812,W,14.13,18.06,270324,,,A*7F;;7.00;0.00;22.00;25.07;63.87 -->27/03/24 08:04:59*;
MES=0.34; ; ; ; V/m; 3.58V; $GNRMC,120500.000,A,2127.3776,S,05422.7812,W,14.13,18.06,270324,,,A*7F;;31.00;14.00;-33.00;25.07;63.87 -->27/03/24 08:04:59*;
MES=0.34; ; ; ; V/m; 3.58V; $GNRMC,120501.000,A,2127.3751,S,05422.7825,W,13.39,19.90,270324,,,A*7E;;-6.00;49.00;27.00;25.07;63.87 -->27/03/24 08:05:00*;
MES=0.38; ; ; ; V/m; 3.58V; $GNRMC,120501.000,A,2127.3751,S,05422.7825,W,13.39,19.90,270324,,,A*7E;;-26.00;-33.00;45.00;25.26;63.06 -->27/03/24 08:05:00*;
MES=0.37; ; ; ; V/m; 3.58V; $GNRMC,120501.000,A,2127.3751,S,05422.7825,W,13.39,19.90,270324,,,A*7E;;7.00;-13.00;-88.00;25.26;63.06 -->27/03/24 08:05:00*;
MES=0.36; ; ; ; V/m; 3.58V; $GNRMC,120501.000,A,2127.3751,S,05422.7825,W,13.39,19.90,270324,,,A*7E;;0.00;38.00;39.00;25.26;63.06 -->27/03/24 08:05:01*;
MES=0.36; ; ; ; V/m; 3.58V; $GNRMC,120502.000,A,2127.3720,S,05422.7814,W,10.98,19.24,270324,,,A*7E;;8.00;-29.00;-51.00;25.26;63.06 -->27/03/24 08:05:01*;
MES=0.39; ; ; ; V/m; 3.58V; $GNRMC,120502.000,A,2127.3720,S,05422.7814,W,10.98,19.24,270324,,,A*7E;;-26.00;45.00;61.00;25.26;63.06 -->27/03/24 08:05:01*;
MES=0.41; ; ; ; V/m; 3.58V; $GNRMC,120502.000,A,2127.3720,S,05422.7814,W,10.98,19.24,270324,,,A*7E;;7.00;-26.00;-30.00;25.26;63.06 -->27/03/24 08:05:01*;
MES=0.39; ; ; ; V/m; 3.58V; $GNRMC,120502.000,A,2127.3720,S,05422.7814,W,10.98,19.24,270324,,,A*7E;;34.00;-108.00;25.00;25.26;63.06 -->27/03/24 08:05:02*;
MES=0.39; ; ; ; V/m; 3.58V; $GNRMC,120503.000,A,2127.3696,S,05422.7806,W,7.73,14.62,270324,,,A*4C;;-9.00;53.00;-125.00;25.26;63.06 -->27/03/24 08:05:02*;
MES=0.37; ; ; ; V/m; 3.58V; $GNRMC,120503.000,A,2127.3696,S,05422.7806,W,7.73,14.62,270324,,,A*4C;;-49.00;-164.00;158.00;25.26;63.06 -->27/03/24 08:05:02*;
MES=0.37; ; ; ; V/m; 3.58V; $GNRMC,120503.000,A,2127.3696,S,05422.7806,W,7.73,14.62,270324,,,A*4C;;63.00;91.00;49.00;25.26;63.06 -->27/03/24 08:05:02*;
MES=0.39; ; ; ; V/m; 3.58V; $GNRMC,120504.000,A,2127.3683,S,05422.7803,W,3.94,6.83,270324,,,A*7B;;10.00;112.00;-157.00;25.26;63.06 -->27/03/24 08:05:03*;
MES=0.41; ; ; ; V/m; 3.58V; $GNRMC,120504.000,A,2127.3683,S,05422.7803,W,3.94,6.83,270324,,,A*7B;;-68.00;-149.00;94.00;25.26;63.06 -->27/03/24 08:05:03*;
MES=0.44; ; ; ; V/m; 3.58V; $GNRMC,120504.000,A,2127.3683,S,05422.7803,W,3.94,6.83,270324,,,A*7B;;59.00;8.00;-89.00;25.26;63.06 -->27/03/24 08:05:03*;
MES=0.50; ; ; ; V/m; 3.58V; $GNRMC,120504.000,A,2127.3683,S,05422.7803,W,3.94,6.83,270324,,,A*7B;;-104.00;104.00;79.00;25.26;63.06 -->27/03/24 08:05:04*;
MES=0.51; ; ; ; V/m; 3.58V; $GNRMC,120505.000,A,2127.3676,S,05422.7802,W,2.44,6.83,270324,,,A*7D;;82.00;-83.00;30.00;25.26;63.06 -->27/03/24 08:05:04*;
MES=0.53; ; ; ; V/m; 3.58V; $GNRMC,120505.000,A,2127.3676,S,05422.7802,W,2.44,6.83,270324,,,A*7D;;92.00;-121.00;34.00;25.26;63.06 -->27/03/24 08:05:04*;
MES=0.51; ; ; ; V/m; 3.58V; $GNRMC,120505.000,A,2127.3676,S,05422.7802,W,2.44,6.83,270324,,,A*7D;;-131.00;127.00;-98.00;25.26;63.06 -->27/03/24 08:05:04*;
MES=0.43; ; ; ; V/m; 3.58V; $GNRMC,120505.000,A,2127.3676,S,05422.7802,W,2.44,6.83,270324,,,A*7D;;61.00;-55.00;64.00;25.26;63.06 -->27/03/24 08:05:05*;
MES=0.40; ; ; ; V/m; 3.58V; $GNRMC,120506.000,A,2127.3669,S,05422.7801,W,2.84,6.83,270324,,,A*7F;;-16.00;4.00;11.00;25.26;63.06 -->27/03/24 08:05:05*;
MES=0.37; ; ; ; V/m; 3.58V; $GNRMC,120506.000,A,2127.3669,S,05422.7801,W,2.84,6.83,270324,,,A*7F;;-2.00;20.00;9.00;25.26;63.06 -->27/03/24 08:05:05*;
MES=0.37; ; ; ; V/m; 3.58V; $GNRMC,120506.000,A,2127.3669,S,05422.7801,W,2.84,6.83,270324,,,A*7F;;-2.00;-7.00;-77.00;25.26;63.06 -->27/03/24 08:05:05*;
MES=0.38; ; ; ; V/m; 3.58V; $GNRMC,120507.000,A,2127.3659,S,05422.7798,W,4.91,22.75,270324,,,A*4F;;16.00;74.00;58.00;25.26;63.06 -->27/03/24 08:05:06*;
MES=0.42; ; ; ; V/m; 3.58V; $GNRMC,120507.000,A,2127.3659,S,05422.7798,W,4.91,22.75,270324,,,A*4F;;10.00;-65.00;29.00;25.26;63.06 -->27/03/24 08:05:06*;
MES=0.48; ; ; ; V/m; 3.58V; $GNRMC,120507.000,A,2127.3659,S,05422.7798,W,4.91,22.75,270324,,,A*4F;;-30.00;14.00;-32.00;25.26;63.06 -->27/03/24 08:05:06*;
MES=0.49; ; ; ; V/m; 3.58V; $GNRMC,120507.000,A,2127.3659,S,05422.7798,W,4.91,22.75,270324,,,A*4F;;10.00;-8.00;-8.00;25.26;63.06 -->27/03/24 08:05:07*;
MES=0.51; ; ; ; V/m; 3.58V; $GNRMC,120508.000,A,2127.3642,S,05422.7792,W,7.63,21.86,270324,,,A*41;;-24.00;-10.00;-10.00;25.26;63.06 -->27/03/24 08:05:07*;
MES=0.50; ; ; ; V/m; 3.58V; $GNRMC,120508.000,A,2127.3642,S,05422.7792,W,7.63,21.86,270324,,,A*41;;13.00;35.00;-3.00;25.26;63.06 -->27/03/24 08:05:07*;
MES=0.45; ; ; ; V/m; 3.58V; $GNRMC,120508.000,A,2127.3642,S,05422.7792,W,7.63,21.86,270324,,,A*41;;7.00;-11.00;41.00;25.26;63.06 -->27/03/24 08:05:07*;
MES=0.44; ; ; ; V/m; 3.58V; $GNRMC,120508.000,A,2127.3642,S,05422.7792,W,7.63,21.86,270324,,,A*41;;11.00;2.00;-10.00;25.26;63.06 -->27/03/24 08:05:08*;
MES=0.38; ; ; ; V/m; 3.58V; $GNRMC,120509.000,A,2127.3618,S,05422.7785,W,10.07,20.28,270324,,,A*78;;4.00;-4.00;-63.00;25.26;63.06 -->27/03/24 08:05:08*;
MES=0.38; ; ; ; V/m; 3.58V; $GNRMC,120509.000,A,2127.3618,S,05422.7785,W,10.07,20.28,270324,,,A*78;;-31.00;15.00;7.00;25.26;63.06 -->27/03/24 08:05:08*;
MES=0.39; ; ; ; V/m; 3.58V; $GNRMC,120509.000,A,2127.3618,S,05422.7785,W,10.07,20.28,270324,,,A*78;;13.00;31.00;48.00;25.26;63.06 -->27/03/24 08:05:08*;
MES=0.41; ; ; ; V/m; 3.58V; $GNRMC,120509.000,A,2127.3618,S,05422.7785,W,10.07,20.28,270324,,,A*78;;-13.00;-45.00;-88.00;25.26;63.06 -->27/03/24 08:05:09*;
MES=0.37; ; ; ; V/m; 3.58V; $GNRMC,120510.000,A,2127.3589,S,05422.7773,W,11.60,21.49,270324,,,A*74;;8.00;41.00;52.00;25.26;63.06 -->27/03/24 08:05:09*;
MES=0.34; ; ; ; V/m; 3.58V; $GNRMC,120510.000,A,2127.3589,S,05422.7773,W,11.60,21.49,270324,,,A*74;;-10.00;10.00;31.00;25.26;63.06 -->27/03/24 08:05:09*;
MES=0.34; ; ; ; V/m; 3.58V; $GNRMC,120510.000,A,2127.3589,S,05422.7773,W,11.60,21.49,270324,,,A*74;;-10.00;-32.00;-52.00;25.26;63.06 -->27/03/24 08:05:09*;
MES=0.29; ; ; ; V/m; 3.58V; $GNRMC,120511.000,A,2127.3558,S,05422.7760,W,12.12,21.54,270324,,,A*71;;31.00;25.00;36.00;25.26;63.06 -->27/03/24 08:05:10*;
MES=0.29; ; ; ; V/m; 3.58V; $GNRMC,120511.000,A,2127.3558,S,05422.7760,W,12.12,21.54,270324,,,A*71;;-39.00;0.00;-11.00;25.26;63.06 -->27/03/24 08:05:10*;
MES=0.31; ; ; ; V/m; 3.58V; $GNRMC,120511.000,A,2127.3558,S,05422.7760,W,12.12,21.54,270324,,,A*71;;24.00;-13.00;0.00;25.26;63.06 -->27/03/24 08:05:10*;
MES=0.34; ; ; ; V/m; 3.58V; $GNRMC,120511.000,A,2127.3558,S,05422.7760,W,12.12,21.54,270324,,,A*71;;25.00;-35.00;-49.00;25.26;63.06 -->27/03/24 08:05:11*;
MES=0.34; ; ; ; V/m; 3.58V; $GNRMC,120512.000,A,2127.3527,S,05422.7748,W,11.34,21.56,270324,,,A*75;;-16.00;41.00;37.00;25.26;63.06 -->27/03/24 08:05:11*;
MES=0.37; ; ; ; V/m; 3.58V; $GNRMC,120512.000,A,2127.3527,S,05422.7748,W,11.34,21.56,270324,,,A*75;;-19.00;62.00;55.00;25.26;63.06 -->27/03/24 08:05:11*;
MES=0.37; ; ; ; V/m; 3.58V; $GNRMC,120512.000,A,2127.3527,S,05422.7748,W,11.34,21.56,270324,,,A*75;;0.00;-16.00;-90.00;25.26;63.06 -->27/03/24 08:05:11*;
MES=0.37; ; ; ; V/m; 3.58V; $GNRMC,120512.000,A,2127.3527,S,05422.7748,W,11.34,21.56,270324,,,A*75;;-7.00;15.00;-16.00;25.26;63.06 -->27/03/24 08:05:12*;
MES=0.36; ; ; ; V/m; 3.58V; $GNRMC,120513.000,A,2127.3498,S,05422.7737,W,10.97,21.24,270324,,,A*74;;31.00;-47.00;-50.00;25.26;63.06 -->27/03/24 08:05:12*;
MES=0.35; ; ; ; V/m; 3.58V; $GNRMC,120513.000,A,2127.3498,S,05422.7737,W,10.97,21.24,270324,,,A*74;;-18.00;10.00;45.00;25.26;63.06 -->27/03/24 08:05:12*;
MES=0.32; ; ; ; V/m; 3.58V; $GNRMC,120513.000,A,2127.3498,S,05422.7737,W,10.97,21.24,270324,,,A*74;;20.00;-61.00;-25.00;25.26;63.06 -->27/03/24 08:05:12*;
MES=0.32; ; ; ; V/m; 3.58V; $GNRMC,120514.000,A,2127.3474,S,05422.7729,W,9.37,24.89,270324,,,A*4E;;-41.00;45.00;15.00;25.26;63.06 -->27/03/24 08:05:13*;
MES=0.34; ; ; ; V/m; 3.58V; $GNRMC,120514.000,A,2127.3474,S,05422.7729,W,9.37,24.89,270324,,,A*4E;;38.00;67.00;43.00;25.26;63.06 -->27/03/24 08:05:13*;
MES=0.34; ; ; ; V/m; 3.58V; $GNRMC,120514.000,A,2127.3474,S,05422.7729,W,9.37,24.89,270324,,,A*4E;;25.00;-48.00;-39.00;25.26;63.06 -->27/03/24 08:05:13*;
MES=0.39; ; ; ; V/m; 3.58V; $GNRMC,120514.000,A,2127.3474,S,05422.7729,W,9.37,24.89,270324,,,A*4E;;-33.00;89.00;106.00;25.26;63.06 -->27/03/24 08:05:14*;
MES=0.41; ; ; ; V/m; 3.58V; $GNRMC,120515.000,A,2127.3454,S,05422.7717,W,7.79,36.30,270324,,,A*45;;7.00;-117.00;-124.00;25.26;63.06 -->27/03/24 08:05:14*;
MES=0.41; ; ; ; V/m; 3.58V; $GNRMC,120515.000,A,2127.3454,S,05422.7717,W,7.79,36.30,270324,,,A*45;;-33.00;87.00;61.00;25.26;63.06 -->27/03/24 08:05:14*;
MES=0.41; ; ; ; V/m; 3.58V; $GNRMC,120515.000,A,2127.3454,S,05422.7717,W,7.79,36.30,270324,,,A*45;;70.00;-80.00;36.00;25.26;63.06 -->27/03/24 08:05:14*;
MES=0.49; ; ; ; V/m; 3.58V; $GNRMC,120515.000,A,2127.3454,S,05422.7717,W,7.79,36.30,270324,,,A*45;;-66.00;13.00;-39.00;25.26;63.06 -->27/03/24 08:05:15*;
MES=0.53; ; ; ; V/m; 3.58V; $GNRMC,120516.000,A,2127.3440,S,05422.7702,W,6.53,47.52,270324,,,A*4C;;31.00;-72.00;-146.00;25.26;63.06 -->27/03/24 08:05:15*;
MES=0.58; ; ; ; V/m; 3.58V; $GNRMC,120516.000,A,2127.3440,S,05422.7702,W,6.53,47.52,270324,,,A*4C;;-34.00;81.00;99.00;25.26;63.06 -->27/03/24 08:05:15*;
MES=0.53; ; ; ; V/m; 3.58V; $GNRMC,120516.000,A,2127.3440,S,05422.7702,W,6.53,47.52,270324,,,A*4C;;25.00;21.00;140.00;25.26;63.06 -->27/03/24 08:05:15*;
MES=0.52; ; ; ; V/m; 3.58V; $GNRMC,120517.000,A,2127.3429,S,05422.7690,W,5.33,58.78,270324,,,A*4B;;-23.00;-92.00;-56.00;25.26;63.06 -->27/03/24 08:05:16*;
MES=0.48; ; ; ; V/m; 3.56V; $GNRMC,120517.000,A,2127.3429,S,05422.7690,W,5.33,58.78,270324,,,A*4B;;83.00;58.00;-43.00;25.26;63.06 -->27/03/24 08:05:16*;
MES=0.48; ; ; ; V/m; 3.56V; $GNRMC,120517.000,A,2127.3429,S,05422.7690,W,5.33,58.78,270324,,,A*4B;;-77.00;-49.00;-116.00;25.26;63.06 -->27/03/24 08:05:16*;
MES=0.49; ; ; ; V/m; 3.56V; $GNRMC,120517.000,A,2127.3429,S,05422.7690,W,5.33,58.78,270324,,,A*4B;;-18.00;22.00;87.00;25.26;63.06 -->27/03/24 08:05:17*;
MES=0.36; ; ; ; V/m; 3.56V; $GNRMC,120518.000,A,2127.3423,S,05422.7676,W,5.20,70.28,270324,,,A*4B;;2.00;59.00;39.00;25.26;63.06 -->27/03/24 08:05:17*;
MES=0.36; ; ; ; V/m; 3.56V; $GNRMC,120518.000,A,2127.3423,S,05422.7676,W,5.20,70.28,270324,,,A*4B;;58.00;-83.00;57.00;25.26;63.06 -->27/03/24 08:05:17*;
MES=0.47; ; ; ; V/m; 3.56V; $GNRMC,120518.000,A,2127.3423,S,05422.7676,W,5.20,70.28,270324,,,A*4B;;-35.00;40.00;65.00;25.26;63.06 -->27/03/24 08:05:17*;
MES=0.37; ; ; ; V/m; 3.56V; $GNRMC,120518.000,A,2127.3423,S,05422.7676,W,5.20,70.28,270324,,,A*4B;;-5.00;-58.00;-155.00;25.26;63.06 -->27/03/24 08:05:18*;
MES=0.37; ; ; ; V/m; 3.56V; $GNRMC,120519.000,A,2127.3419,S,05422.7661,W,5.10,78.76,270324,,,A*45;;-34.00;126.00;-33.00;25.26;63.06 -->27/03/24 08:05:18*;
MES=0.41; ; ; ; V/m; 3.56V; $GNRMC,120519.000,A,2127.3419,S,05422.7661,W,5.10,78.76,270324,,,A*45;;67.00;-65.00;88.00;25.26;63.06 -->27/03/24 08:05:18*;
MES=0.47; ; ; ; V/m; 3.56V; $GNRMC,120519.000,A,2127.3419,S,05422.7661,W,5.10,78.76,270324,,,A*45;;-5.00;16.00;13.00;25.26;63.06 -->27/03/24 08:05:18*;
MES=0.38; ; ; ; V/m; 3.56V; $GNRMC,120520.000,A,2127.3418,S,05422.7647,W,4.94,85.64,270324,,,A*46;;-6.00;-3.00;44.00;25.26;63.06 -->27/03/24 08:05:19*;
MES=0.38; ; ; ; V/m; 3.56V; $GNRMC,120520.000,A,2127.3418,S,05422.7647,W,4.94,85.64,270324,,,A*46;;0.00;3.00;-48.00;25.26;63.06 -->27/03/24 08:05:19*;
MES=0.47; ; ; ; V/m; 3.56V; $GNRMC,120520.000,A,2127.3418,S,05422.7647,W,4.94,85.64,270324,,,A*46;;-3.00;38.00;-22.00;25.26;63.06 -->27/03/24 08:05:19*;
MES=0.45; ; ; ; V/m; 3.56V; $GNRMC,120520.000,A,2127.3418,S,05422.7647,W,4.94,85.64,270324,,,A*46;;-30.00;-45.00;17.00;25.26;63.06 -->27/03/24 08:05:19*;
MES=0.41; ; ; ; V/m; 3.56V; $GNRMC,120521.000,A,2127.3416,S,05422.7634,W,4.29,83.50,270324,,,A*4A;;30.00;-25.00;3.00;25.26;63.06 -->27/03/24 08:05:20*;
MES=0.41; ; ; ; V/m; 3.56V; $GNRMC,120521.000,A,2127.3416,S,05422.7634,W,4.29,83.50,270324,,,A*4A;;-27.00;-25.00;-34.00;25.26;63.06 -->27/03/24 08:05:20*;
MES=0.47; ; ; ; V/m; 3.56V; $GNRMC,120521.000,A,2127.3416,S,05422.7634,W,4.29,83.50,270324,,,A*4A;;36.00;22.00;49.00;25.26;63.06 -->27/03/24 08:05:20*;
MES=0.43; ; ; ; V/m; 3.56V; $GNRMC,120521.000,A,2127.3416,S,05422.7634,W,4.29,83.50,270324,,,A*4A;;41.00;133.00;-47.00;25.26;63.06 -->27/03/24 08:05:21*;
MES=0.36; ; ; ; V/m; 3.56V; $GNRMC,120522.000,A,2127.3415,S,05422.7623,W,3.42,81.42,270324,,,A*47;;-100.00;-133.00;20.00;25.26;63.06 -->27/03/24 08:05:21*;
MES=0.36; ; ; ; V/m; 3.56V; $GNRMC,120522.000,A,2127.3415,S,05422.7623,W,3.42,81.42,270324,,,A*47;;43.00;-6.00;116.00;25.26;63.06 -->27/03/24 08:05:21*;
MES=0.41; ; ; ; V/m; 3.56V; $GNRMC,120522.000,A,2127.3415,S,05422.7623,W,3.42,81.42,270324,,,A*47;;4.00;7.00;-134.00;25.26;63.06 -->27/03/24 08:05:21*;
MES=0.27; ; ; ; V/m; 3.56V; $GNRMC,120523.000,A,2127.3415,S,05422.7612,W,4.28,93.46,270324,,,A*48;;-1.00;-71.00;-14.00;25.26;63.06 -->27/03/24 08:05:22*;
MES=0.27; ; ; ; V/m; 3.56V; $GNRMC,120523.000,A,2127.3415,S,05422.7612,W,4.28,93.46,270324,,,A*48;;32.00;76.00;105.00;25.26;63.06 -->27/03/24 08:05:22*;
MES=0.46; ; ; ; V/m; 3.56V; $GNRMC,120523.000,A,2127.3415,S,05422.7612,W,4.28,93.46,270324,,,A*48;;39.00;-134.00;-167.00;25.26;63.06 -->27/03/24 08:05:22*;
MES=0.39; ; ; ; V/m; 3.56V; $GNRMC,120523.000,A,2127.3415,S,05422.7612,W,4.28,93.46,270324,,,A*48;;-131.00;171.00;131.00;25.26;63.06 -->27/03/24 08:05:22*;
MES=0.39; ; ; ; V/m; 3.56V; $GNRMC,120524.000,A,2127.3416,S,05422.7601,W,3.60,85.86,270324,,,A*4E;;97.00;-50.00;-7.00;25.26;63.06 -->27/03/24 08:05:23*;
MES=0.43; ; ; ; V/m; 3.56V; $GNRMC,120524.000,A,2127.3416,S,05422.7601,W,3.60,85.86,270324,,,A*4E;;-60.00;-21.00;-41.00;25.26;63.06 -->27/03/24 08:05:23*;
MES=0.41; ; ; ; V/m; 3.56V; $GNRMC,120524.000,A,2127.3416,S,05422.7601,W,3.60,85.86,270324,,,A*4E;;49.00;18.00;-1.00;25.26;63.06 -->27/03/24 08:05:23*;
MES=0.39; ; ; ; V/m; 3.56V; $GNRMC,120524.000,A,2127.3416,S,05422.7601,W,3.60,85.86,270324,,,A*4E;;-14.00;-3.00;17.00;25.26;63.06 -->27/03/24 08:05:24*;
MES=0.39; ; ; ; V/m; 3.56V; $GNRMC,120525.000,A,2127.3415,S,05422.7590,W,3.84,83.84,270324,,,A*49;;-24.00;-32.00;4.00;25.26;63.06 -->27/03/24 08:05:24*;
MES=0.42; ; ; ; V/m; 3.56V; $GNRMC,120525.000,A,2127.3415,S,05422.7590,W,3.84,83.84,270324,,,A*49;;18.00;15.00;15.00;25.26;63.06 -->27/03/24 08:05:24*;
MES=0.42; ; ; ; V/m; 3.56V; $GNRMC,120525.000,A,2127.3415,S,05422.7590,W,3.84,83.84,270324,,,A*49;;-11.00;-26.00;-1.00;25.26;63.06 -->27/03/24 08:05:24*;
MES=0.50; ; ; ; V/m; 3.56V; $GNRMC,120525.000,A,2127.3415,S,05422.7590,W,3.84,83.84,270324,,,A*49;;44.00;18.00;1.00;25.26;63.06 -->27/03/24 08:05:25*;
MES=0.43; ; ; ; V/m; 3.56V; $GNRMC,120526.000,A,2127.3414,S,05422.7578,W,4.44,84.03,270324,,,A*4E;;-10.00;-21.00;-60.00;25.26;63.06 -->27/03/24 08:05:25*;
MES=0.40; ; ; ; V/m; 3.56V; $GNRMC,120526.000,A,2127.3414,S,05422.7578,W,4.44,84.03,270324,,,A*4E;;-63.00;46.00;50.00;25.26;63.06 -->27/03/24 08:05:25*;
MES=0.40; ; ; ; V/m; 3.56V; $GNRMC,120526.000,A,2127.3414,S,05422.7578,W,4.44,84.03,270324,,,A*4E;;75.00;-12.00;28.00;25.26;63.06 -->27/03/24 08:05:25*;
MES=0.43; ; ; ; V/m; 3.56V; $GNRMC,120527.000,A,2127.3412,S,05422.7564,W,5.48,84.14,270324,,,A*4F;;-58.00;-29.00;-14.00;25.26;63.06 -->27/03/24 08:05:26*;
MES=0.35; ; ; ; V/m; 3.56V; $GNRMC,120527.000,A,2127.3412,S,05422.7564,W,5.48,84.14,270324,,,A*4F;;-18.00;45.00;-31.00;25.26;63.06 -->27/03/24 08:05:26*;
MES=0.35; ; ; ; V/m; 3.56V; $GNRMC,120527.000,A,2127.3412,S,05422.7564,W,5.48,84.14,270324,,,A*4F;;29.00;-51.00;-54.00;25.26;63.06 -->27/03/24 08:05:26*;
MES=0.36; ; ; ; V/m; 3.56V; $GNRMC,120527.000,A,2127.3412,S,05422.7564,W,5.48,84.14,270324,,,A*4F;;-5.00;32.00;34.00;25.26;63.06 -->27/03/24 08:05:27*;
MES=0.43; ; ; ; V/m; 3.56V; $GNRMC,120528.000,A,2127.3411,S,05422.7547,W,6.66,86.56,270324,,,A*49;;34.00;69.00;27.00;25.26;63.06 -->27/03/24 08:05:27*;
MES=0.32; ; ; ; V/m; 3.56V; $GNRMC,120528.000,A,2127.3411,S,05422.7547,W,6.66,86.56,270324,,,A*49;;-32.00;-58.00;-25.00;25.26;63.06 -->27/03/24 08:05:27*;
MES=0.32; ; ; ; V/m; 3.56V; $GNRMC,120528.000,A,2127.3411,S,05422.7547,W,6.66,86.56,270324,,,A*49;;34.00;-24.00;-34.00;25.26;63.06 -->27/03/24 08:05:27*;
MES=0.48; ; ; ; V/m; 3.56V; $GNRMC,120528.000,A,2127.3411,S,05422.7547,W,6.66,86.56,270324,,,A*49;;-13.00;81.00;113.00;25.26;63.06 -->27/03/24 08:05:28*;
MES=0.20; ; ; ; V/m; 3.56V; $GNRMC,120529.000,A,2127.3410,S,05422.7525,W,7.89,89.04,270324,,,A*45;;3.00;-89.00;-46.00;25.26;63.06 -->27/03/24 08:05:28*;
MES=0.20; ; ; ; V/m; 3.56V; $GNRMC,120529.000,A,2127.3410,S,05422.7525,W,7.89,89.04,270324,,,A*45;;-14.00;56.00;25.00;25.26;63.06 -->27/03/24 08:05:28*;
MES=0.35; ; ; ; V/m; 3.56V; $GNRMC,120529.000,A,2127.3410,S,05422.7525,W,7.89,89.04,270324,,,A*45;;11.00;-7.00;37.00;25.26;63.06 -->27/03/24 08:05:28*;
MES=0.47; ; ; ; V/m; 3.56V; $GNRMC,120530.000,A,2127.3410,S,05422.7499,W,8.58,88.90,270324,,,A*44;;-29.00;-98.00;-178.00;25.26;63.06 -->27/03/24 08:05:29*;
MES=0.31; ; ; ; V/m; 3.56V; $GNRMC,120530.000,A,2127.3410,S,05422.7499,W,8.58,88.90,270324,,,A*44;;-19.00;186.00;173.00;25.26;63.06 -->27/03/24 08:05:29*;
MES=0.31; ; ; ; V/m; 3.56V; $GNRMC,120530.000,A,2127.3410,S,05422.7499,W,8.58,88.90,270324,,,A*44;;37.00;-71.00;-116.00;25.26;63.06 -->27/03/24 08:05:29*;
MES=0.50; ; ; ; V/m; 3.56V; $GNRMC,120530.000,A,2127.3410,S,05422.7499,W,8.58,88.90,270324,,,A*44;;-6.00;-63.00;81.00;25.26;63.06 -->27/03/24 08:05:29*;
MES=0.32; ; ; ; V/m; 3.56V; $GNRMC,120531.000,A,2127.3410,S,05422.7473,W,8.78,88.40,270324,,,A*4E;;27.00;37.00;-18.00;25.26;63.06 -->27/03/24 08:05:30*;
MES=0.32; ; ; ; V/m; 3.56V; $GNRMC,120531.000,A,2127.3410,S,05422.7473,W,8.78,88.40,270324,,,A*4E;;-5.00;31.00;-21.00;25.26;63.06 -->27/03/24 08:05:30*;
MES=0.35; ; ; ; V/m; 3.56V; $GNRMC,120531.000,A,2127.3410,S,05422.7473,W,8.78,88.40,270324,,,A*4E;;-27.00;0.00;56.00;25.26;63.06 -->27/03/24 08:05:30*;
MES=0.40; ; ; ; V/m; 3.56V; $GNRMC,120531.000,A,2127.3410,S,05422.7473,W,8.78,88.40,270324,,,A*4E;;2.00;-10.00;-31.00;25.26;63.06 -->27/03/24 08:05:31*;
MES=0.34; ; ; ; V/m; 3.56V; $GNRMC,120532.000,A,2127.3410,S,05422.7445,W,10.38,92.23,270324,,,A*7B;;14.00;38.00;58.00;25.26;63.06 -->27/03/24 08:05:31*;
MES=0.34; ; ; ; V/m; 3.56V; $GNRMC,120532.000,A,2127.3410,S,05422.7445,W,10.38,92.23,270324,,,A*7B;;-4.00;-54.00;-72.00;25.26;63.06 -->27/03/24 08:05:31*;
MES=0.37; ; ; ; V/m; 3.56V; $GNRMC,120532.000,A,2127.3410,S,05422.7445,W,10.38,92.23,270324,,,A*7B;;-10.00;61.00;44.00;25.26;63.06 -->27/03/24 08:05:31*;
MES=0.61; ; ; ; V/m; 3.56V; $GNRMC,120533.000,A,2127.3411,S,05422.7414,W,10.15,90.36,270324,,,A*76;;1.00;-49.00;-75.00;25.26;63.06 -->27/03/24 08:05:32*;
MES=0.69; ; ; ; V/m; 3.56V; $GNRMC,120533.000,A,2127.3411,S,05422.7414,W,10.15,90.36,270324,,,A*76;;24.00;-9.00;55.00;25.26;63.06 -->27/03/24 08:05:32*;
MES=0.69; ; ; ; V/m; 3.56V; $GNRMC,120533.000,A,2127.3411,S,05422.7414,W,10.15,90.36,270324,,,A*76;;-22.00;4.00;23.00;25.26;63.06 -->27/03/24 08:05:32*;
MES=0.74; ; ; ; V/m; 3.56V; $GNRMC,120533.000,A,2127.3411,S,05422.7414,W,10.15,90.36,270324,,,A*76;;16.00;-1.00;12.00;25.26;63.06 -->27/03/24 08:05:32*;
MES=0.62; ; ; ; V/m; 3.56V; $GNRMC,120534.000,A,2127.3410,S,05422.7383,W,10.22,88.87,270324,,,A*7E;;15.00;6.00;-30.00;25.26;63.06 -->27/03/24 08:05:33*;
MES=0.62; ; ; ; V/m; 3.56V; $GNRMC,120534.000,A,2127.3410,S,05422.7383,W,10.22,88.87,270324,,,A*7E;;-14.00;-16.00;20.00;25.26;63.06 -->27/03/24 08:05:33*;
MES=0.62; ; ; ; V/m; 3.56V; $GNRMC,120534.000,A,2127.3410,S,05422.7383,W,10.22,88.87,270324,,,A*7E;;-25.00;32.00;-24.00;25.26;63.06 -->27/03/24 08:05:33*;
MES=0.51; ; ; ; V/m; 3.56V; $GNRMC,120534.000,A,2127.3410,S,05422.7383,W,10.22,88.87,270324,,,A*7E;;7.00;-51.00;-57.00;25.26;63.06 -->27/03/24 08:05:34*;
MES=0.40; ; ; ; V/m; 3.56V; $GNRMC,120535.000,A,2127.3410,S,05422.7352,W,10.69,87.68,270324,,,A*72;;35.00;45.00;113.00;25.26;63.06 -->27/03/24 08:05:34*;
MES=0.37; ; ; ; V/m; 3.56V; $GNRMC,120535.000,A,2127.3410,S,05422.7352,W,10.69,87.68,270324,,,A*72;;-47.00;-53.00;-94.00;25.26;63.06 -->27/03/24 08:05:34*;
MES=0.35; ; ; ; V/m; 3.56V; $GNRMC,120535.000,A,2127.3410,S,05422.7352,W,10.69,87.68,270324,,,A*72;;10.00;48.00;20.00;25.26;63.06 -->27/03/24 08:05:34*;
MES=0.34; ; ; ; V/m; 3.56V; $GNRMC,120535.000,A,2127.3410,S,05422.7352,W,10.69,87.68,270324,,,A*72;;3.00;-42.00;5.00;25.26;63.06 -->27/03/24 08:05:35*;
MES=0.32; ; ; ; V/m; 3.56V; $GNRMC,120536.000,A,2127.3410,S,05422.7318,W,11.88,92.57,270324,,,A*79;;5.00;31.00;26.00;25.26;63.06 -->27/03/24 08:05:35*;
MES=0.32; ; ; ; V/m; 3.56V; $GNRMC,120536.000,A,2127.3410,S,05422.7318,W,11.88,92.57,270324,,,A*79;;-10.00;-11.00;-34.00;25.26;63.06 -->27/03/24 08:05:35*;
MES=0.37; ; ; ; V/m; 3.56V; $GNRMC,120536.000,A,2127.3410,S,05422.7318,W,11.88,92.57,270324,,,A*79;;48.00;-23.00;44.00;25.26;63.06 -->27/03/24 08:05:35*;
MES=0.37; ; ; ; V/m; 3.56V; $GNRMC,120537.000,A,2127.3409,S,05422.7283,W,11.67,88.91,270324,,,A*73;;-40.00;27.00;-75.00;25.26;63.06 -->27/03/24 08:05:36*;
MES=0.50; ; ; ; V/m; 3.56V; $GNRMC,120537.000,A,2127.3409,S,05422.7283,W,11.67,88.91,270324,,,A*73;;-3.00;6.00;48.00;25.26;63.06 -->27/03/24 08:05:36*;
MES=0.44; ; ; ; V/m; 3.56V; $GNRMC,120537.000,A,2127.3409,S,05422.7283,W,11.67,88.91,270324,,,A*73;;50.00;39.00;64.00;25.26;63.06 -->27/03/24 08:05:36*;
MES=0.33; ; ; ; V/m; 3.56V; $GNRMC,120537.000,A,2127.3409,S,05422.7283,W,11.67,88.91,270324,,,A*73;;-16.00;-34.00;-45.00;25.26;63.06 -->27/03/24 08:05:37*;
MES=0.33; ; ; ; V/m; 3.56V; $GNRMC,120538.000,A,2127.3409,S,05422.7245,W,12.89,89.68,270324,,,A*72;;-17.00;-48.00;13.00;25.26;63.06 -->27/03/24 08:05:37*;
MES=0.31; ; ; ; V/m; 3.56V; $GNRMC,120538.000,A,2127.3409,S,05422.7245,W,12.89,89.68,270324,,,A*72;;43.00;80.00;-56.00;25.26;63.06 -->27/03/24 08:05:37*;
MES=0.31; ; ; ; V/m; 3.56V; $GNRMC,120538.000,A,2127.3409,S,05422.7245,W,12.89,89.68,270324,,,A*72;;-82.00;-80.00;-6.00;25.26;63.06 -->27/03/24 08:05:37*;
MES=0.41; ; ; ; V/m; 3.56V; $GNRMC,120538.000,A,2127.3409,S,05422.7245,W,12.89,89.68,270324,,,A*72;;5.00;66.00;-21.00;25.26;63.06 -->27/03/24 08:05:38*;
MES=0.40; ; ; ; V/m; 3.56V; $GNRMC,120539.000,A,2127.3409,S,05422.7206,W,12.96,89.60,270324,,,A*72;;9.00;-14.00;45.00;25.26;63.06 -->27/03/24 08:05:38*;
MES=0.31; ; ; ; V/m; 3.56V; $GNRMC,120539.000,A,2127.3409,S,05422.7206,W,12.96,89.60,270324,,,A*72;;-27.00;30.00;0.00;25.26;63.06 -->27/03/24 08:05:38*;
MES=0.31; ; ; ; V/m; 3.56V; $GNRMC,120539.000,A,2127.3409,S,05422.7206,W,12.96,89.60,270324,,,A*72;;100.00;-14.00;21.00;25.26;63.06 -->27/03/24 08:05:38*;
MES=0.35; ; ; ; V/m; 3.56V; $GNRMC,120540.000,A,2127.3408,S,05422.7165,W,13.58,90.26,270324,,,A*72;;7.00;-8.00;-25.00;25.26;63.06 -->27/03/24 08:05:39*;
MES=0.41; ; ; ; V/m; 3.56V; $GNRMC,120540.000,A,2127.3408,S,05422.7165,W,13.58,90.26,270324,,,A*72;;-28.00;17.00;-76.00;25.26;63.06 -->27/03/24 08:05:39*;
MES=0.36; ; ; ; V/m; 3.56V; $GNRMC,120540.000,A,2127.3408,S,05422.7165,W,13.58,90.26,270324,,,A*72;;-27.00;-41.00;59.00;25.26;63.06 -->27/03/24 08:05:39*;
MES=0.36; ; ; ; V/m; 3.56V; $GNRMC,120540.000,A,2127.3408,S,05422.7165,W,13.58,90.26,270324,,,A*72;;21.00;-1.00;56.00;25.26;63.06 -->27/03/24 08:05:39*;
MES=0.46; ; ; ; V/m; 3.56V; $GNRMC,120541.000,A,2127.3406,S,05422.7125,W,12.88,87.50,270324,,,A*72;;-26.00;-7.00;-20.00;25.26;63.06 -->27/03/24 08:05:40*;
MES=0.39; ; ; ; V/m; 3.56V; $GNRMC,120541.000,A,2127.3406,S,05422.7125,W,12.88,87.50,270324,,,A*72;;-8.00;64.00;65.00;25.26;63.06 -->27/03/24 08:05:40*;
MES=0.38; ; ; ; V/m; 3.56V; $GNRMC,120541.000,A,2127.3406,S,05422.7125,W,12.88,87.50,270324,,,A*72;;21.00;-67.00;-107.00;25.26;63.06 -->27/03/24 08:05:40*;
MES=0.38; ; ; ; V/m; 3.56V; $GNRMC,120541.000,A,2127.3406,S,05422.7125,W,12.88,87.50,270324,,,A*72;;-27.00;57.00;10.00;25.26;63.06 -->27/03/24 08:05:41*;
MES=0.48; ; ; ; V/m; 3.56V; $GNRMC,120542.000,A,2127.3405,S,05422.7085,W,13.16,88.24,270324,,,A*73;;55.00;41.00;73.00;25.26;63.06 -->27/03/24 08:05:41*;
MES=0.25; ; ; ; V/m; 3.56V; $GNRMC,120542.000,A,2127.3405,S,05422.7085,W,13.16,88.24,270324,,,A*73;;9.00;-89.00;-55.00;25.26;63.06 -->27/03/24 08:05:41*;
MES=0.25; ; ; ; V/m; 3.56V; $GNRMC,120542.000,A,2127.3405,S,05422.7085,W,13.16,88.24,270324,,,A*73;;-81.00;47.00;-47.00;25.26;63.06 -->27/03/24 08:05:41*;
MES=0.37; ; ; ; V/m; 3.56V; $GNRMC,120543.000,A,2127.3404,S,05422.7045,W,12.69,87.35,270324,,,A*79;;27.00;42.00;-28.00;25.26;63.06 -->27/03/24 08:05:42*;
MES=0.18; ; ; ; V/m; 3.56V; $GNRMC,120543.000,A,2127.3404,S,05422.7045,W,12.69,87.35,270324,,,A*79;;-32.00;35.00;88.00;25.26;63.06 -->27/03/24 08:05:42*;
MES=0.18; ; ; ; V/m; 3.56V; $GNRMC,120543.000,A,2127.3404,S,05422.7045,W,12.69,87.35,270324,,,A*79;;10.00;-68.00;-44.00;25.26;63.06 -->27/03/24 08:05:42*;
MES=0.32; ; ; ; V/m; 3.56V; $GNRMC,120543.000,A,2127.3404,S,05422.7045,W,12.69,87.35,270324,,,A*79;;27.00;51.00;54.00;25.26;63.06 -->27/03/24 08:05:42*;
MES=0.41; ; ; ; V/m; 3.56V; $GNRMC,120544.000,A,2127.3402,S,05422.7008,W,11.70,87.29,270324,,,A*77;;-6.00;-27.00;-88.00;25.26;63.06 -->27/03/24 08:05:43*;
MES=0.21; ; ; ; V/m; 3.56V; $GNRMC,120544.000,A,2127.3402,S,05422.7008,W,11.70,87.29,270324,,,A*77;;-42.00;46.00;59.00;25.26;63.06 -->27/03/24 08:05:43*;
MES=0.21; ; ; ; V/m; 3.56V; $GNRMC,120544.000,A,2127.3402,S,05422.7008,W,11.70,87.29,270324,,,A*77;;12.00;-27.00;-49.00;25.26;63.06 -->27/03/24 08:05:43*;
MES=0.29; ; ; ; V/m; 3.56V; $GNRMC,120544.000,A,2127.3402,S,05422.7008,W,11.70,87.29,270324,,,A*77;;27.00;20.00;-17.00;25.26;63.06 -->27/03/24 08:05:44*;
MES=0.39; ; ; ; V/m; 3.56V; $GNRMC,120545.000,A,2127.3402,S,05422.6974,W,9.98,91.93,270324,,,A*4C;;19.00;17.00;25.00;25.26;63.06 -->27/03/24 08:05:44*;
MES=0.16; ; ; ; V/m; 3.56V; $GNRMC,120545.000,A,2127.3402,S,05422.6974,W,9.98,91.93,270324,,,A*4C;;-17.00;-21.00;-8.00;25.26;63.06 -->27/03/24 08:05:44*;
MES=0.00; ; ; ; V/m; 3.56V; $GNRMC,120545.000,A,2127.3402,S,05422.6974,W,9.98,91.93,270324,,,A*4C;;-39.00;12.00;37.00;25.26;63.06 -->27/03/24 08:05:44*;
MES=0.00; ; ; ; V/m; 3.56V; $GNRMC,120546.000,A,2127.3402,S,05422.6950,W,7.17,96.66,270324,,,A*4D;;-9.00;-131.00;-5.00;25.26;63.06 -->27/03/24 08:05:45*;
MES=0.34; ; ; ; V/m; 3.56V; $GNRMC,120546.000,A,2127.3402,S,05422.6950,W,7.17,96.66,270324,,,A*4D;;75.00;-12.00;50.00;25.26;63.06 -->27/03/24 08:05:45*;
MES=0.15; ; ; ; V/m; 3.56V; $GNRMC,120546.000,A,2127.3402,S,05422.6950,W,7.17,96.66,270324,,,A*4D;;-14.00;-1.00;-30.00;25.26;63.06 -->27/03/24 08:05:45*;
MES=0.00; ; ; ; V/m; 3.56V; $GNRMC,120546.000,A,2127.3402,S,05422.6950,W,7.17,96.66,270324,,,A*4D;;31.00;91.00;-13.00;25.26;63.06 -->27/03/24 08:05:45*;
MES=0.00; ; ; ; V/m; 3.56V; $GNRMC,120547.000,A,2127.3401,S,05422.6936,W,3.47,90.27,270324,,,A*4D;;28.00;-122.00;19.00;25.26;63.06 -->27/03/24 08:05:46*;
MES=0.18; ; ; ; V/m; 3.56V; $GNRMC,120547.000,A,2127.3401,S,05422.6936,W,3.47,90.27,270324,,,A*4D;;-72.00;45.00;5.00;25.26;63.06 -->27/03/24 08:05:46*;
MES=0.18; ; ; ; V/m; 3.56V; $GNRMC,120547.000,A,2127.3401,S,05422.6936,W,3.47,90.27,270324,,,A*4D;;-59.00;15.00;4.00;25.26;63.06 -->27/03/24 08:05:46*;
MES=0.37; ; ; ; V/m; 3.56V; $GNRMC,120547.000,A,2127.3401,S,05422.6936,W,3.47,90.27,270324,,,A*4D;;29.00;-43.00;-4.00;25.26;63.06 -->27/03/24 08:05:47*;
MES=0.16; ; ; ; V/m; 3.56V; $GNRMC,120548.000,A,2127.3401,S,05422.6925,W,3.06,87.17,270324,,,A*40;;117.00;-48.00;62.00;25.26;63.06 -->27/03/24 08:05:47*;
MES=0.00; ; ; ; V/m; 3.56V; $GNRMC,120548.000,A,2127.3401,S,05422.6925,W,3.06,87.17,270324,,,A*40;;-118.00;84.00;-23.00;25.26;63.06 -->27/03/24 08:05:47*;
MES=0.00; ; ; ; V/m; 3.56V; $GNRMC,120548.000,A,2127.3401,S,05422.6925,W,3.06,87.17,270324,,,A*40;;33.00;-84.00;-46.00;25.26;63.06 -->27/03/24 08:05:47*;
MES=0.37; ; ; ; V/m; 3.56V; $GNRMC,120549.000,A,2127.3400,S,05422.6913,W,4.09,86.71,270324,,,A*4C;;32.00;39.00;6.00;25.26;63.06 -->27/03/24 08:05:48*;
MES=0.00; ; ; ; V/m; 3.56V; $GNRMC,120549.000,A,2127.3400,S,05422.6913,W,4.09,86.71,270324,,,A*4C;;-24.00;19.00;69.00;25.26;63.06 -->27/03/24 08:05:48*;
MES=0.00; ; ; ; V/m; 3.56V; $GNRMC,120549.000,A,2127.3400,S,05422.6913,W,4.09,86.71,270324,,,A*4C;;-11.00;-8.00;-88.00;25.26;63.06 -->27/03/24 08:05:48*;
MES=0.00; ; ; ; V/m; 3.56V; $GNRMC,120549.000,A,2127.3400,S,05422.6913,W,4.09,86.71,270324,,,A*4C;;21.00;-5.00;19.00;25.26;63.06 -->27/03/24 08:05:48*;
MES=0.34; ; ; ; V/m; 3.56V; $GNRMC,120550.000,A,2127.3399,S,05422.6896,W,5.99,86.17,270324,,,A*47;;-4.00;0.00;6.00;25.26;63.06 -->27/03/24 08:05:49*;
MES=0.16; ; ; ; V/m; 3.56V; $GNRMC,120550.000,A,2127.3399,S,05422.6896,W,5.99,86.17,270324,,,A*47;;11.00;-8.00;11.00;25.26;63.06 -->27/03/24 08:05:49*;
MES=0.00; ; ; ; V/m; 3.56V; $GNRMC,120550.000,A,2127.3399,S,05422.6896,W,5.99,86.17,270324,,,A*47;;-5.00;-23.00;-37.00;25.26;63.06 -->27/03/24 08:05:49*;
MES=0.00; ; ; ; V/m; 3.56V; $GNRMC,120550.000,A,2127.3399,S,05422.6896,W,5.99,86.17,270324,,,A*47;;-18.00;68.00;27.00;25.26;63.06 -->27/03/24 08:05:49*;
MES=0.00; ; ; ; V/m; 3.56V; $GNRMC,120551.000,A,2127.3397,S,05422.6874,W,8.46,88.43,270324,,,A*44;;-14.00;-27.00;-8.00;25.26;63.06 -->27/03/24 08:05:50*;
MES=0.16; ; ; ; V/m; 3.56V; $GNRMC,120551.000,A,2127.3397,S,05422.6874,W,8.46,88.43,270324,,,A*44;;5.00;21.00;40.00;25.26;63.06 -->27/03/24 08:05:50*;
MES=0.00; ; ; ; V/m; 3.56V; $GNRMC,120551.000,A,2127.3397,S,05422.6874,W,8.46,88.43,270324,,,A*44;;-10.00;10.00;-56.00;25.26;63.06 -->27/03/24 08:05:50*;
MES=0.00; ; ; ; V/m; 3.56V; $GNRMC,120551.000,A,2127.3397,S,05422.6874,W,8.46,88.43,270324,,,A*44;;-10.00;11.00;-15.00;25.26;63.06 -->27/03/24 08:05:51*;
MES=0.00; ; ; ; V/m; 3.56V; $GNRMC,120552.000,A,2127.3396,S,05422.6844,W,10.39,87.86,270324,,,A*72;;-4.00;-14.00;16.00;25.26;63.06 -->27/03/24 08:05:51*;
MES=0.34; ; ; ; V/m; 3.56V; $GNRMC,120552.000,A,2127.3396,S,05422.6844,W,10.39,87.86,270324,,,A*72;;18.00;20.00;49.00;25.26;63.06 -->27/03/24 08:05:51*;
MES=0.34; ; ; ; V/m; 3.56V; $GNRMC,120552.000,A,2127.3396,S,05422.6844,W,10.39,87.86,270324,,,A*72;;60.00;-40.00;-45.00;25.26;63.06 -->27/03/24 08:05:51*;
MES=0.50; ; ; ; V/m; 3.56V; $GNRMC,120553.000,A,2127.3394,S,05422.6811,W,11.27,86.38,270324,,,A*7B;;-62.00;29.00;1.00;25.26;63.06 -->27/03/24 08:05:52*;
MES=0.29; ; ; ; V/m; 3.56V; $GNRMC,120553.000,A,2127.3394,S,05422.6811,W,11.27,86.38,270324,,,A*7B;;42.00;33.00;42.00;25.26;63.06 -->27/03/24 08:05:52*;
MES=0.29; ; ; ; V/m; 3.56V; $GNRMC,120553.000,A,2127.3394,S,05422.6811,W,11.27,86.38,270324,,,A*7B;;-13.00;-25.00;18.00;25.26;63.06 -->27/03/24 08:05:52*;
MES=0.33; ; ; ; V/m; 3.56V; $GNRMC,120553.000,A,2127.3394,S,05422.6811,W,11.27,86.38,270324,,,A*7B;;4.00;9.00;-60.00;25.26;63.06 -->27/03/24 08:05:52*;
MES=0.24; ; ; ; V/m; 3.56V; $GNRMC,120554.000,A,2127.3393,S,05422.6774,W,12.39,87.62,270324,,,A*75;;24.00;45.00;43.00;25.26;63.06 -->27/03/24 08:05:53*;
MES=0.24; ; ; ; V/m; 3.56V; $GNRMC,120554.000,A,2127.3393,S,05422.6774,W,12.39,87.62,270324,,,A*75;;6.00;-23.00;89.00;25.26;63.06 -->27/03/24 08:05:53*;
MES=0.24; ; ; ; V/m; 3.56V; $GNRMC,120554.000,A,2127.3393,S,05422.6774,W,12.39,87.62,270324,,,A*75;;-36.00;-79.00;-152.00;25.26;63.06 -->27/03/24 08:05:53*;
MES=0.37; ; ; ; V/m; 3.56V; $GNRMC,120554.000,A,2127.3393,S,05422.6774,W,12.39,87.62,270324,,,A*75;;-9.00;57.00;14.00;25.26;63.06 -->27/03/24 08:05:54*;
MES=0.21; ; ; ; V/m; 3.56V; $GNRMC,120555.000,A,2127.3392,S,05422.6736,W,12.57,86.82,270324,,,A*74;;-41.00;-106.00;0.00;25.26;63.06 -->27/03/24 08:05:54*;
MES=0.19; ; ; ; V/m; 3.56V; $GNRMC,120555.000,A,2127.3392,S,05422.6736,W,12.57,86.82,270324,,,A*74;;51.00;32.00;-108.00;25.26;63.06 -->27/03/24 08:05:54*;
MES=0.19; ; ; ; V/m; 3.56V; $GNRMC,120555.000,A,2127.3392,S,05422.6736,W,12.57,86.82,270324,,,A*74;;19.00;64.00;113.00;25.26;63.06 -->27/03/24 08:05:54*;
MES=0.35; ; ; ; V/m; 3.56V; $GNRMC,120556.000,A,2127.3390,S,05422.6696,W,13.34,87.85,270324,,,A*7C;;-40.00;-34.00;-27.00;25.26;63.06 -->27/03/24 08:05:55*;
MES=0.29; ; ; ; V/m; 3.56V; $GNRMC,120556.000,A,2127.3390,S,05422.6696,W,13.34,87.85,270324,,,A*7C;;-33.00;39.00;76.00;25.26;63.06 -->27/03/24 08:05:55*;
MES=0.29; ; ; ; V/m; 3.56V; $GNRMC,120556.000,A,2127.3390,S,05422.6696,W,13.34,87.85,270324,,,A*7C;;-32.00;-1.00;-120.00;25.26;63.06 -->27/03/24 08:05:55*;
MES=0.49; ; ; ; V/m; 3.56V; $GNRMC,120556.000,A,2127.3390,S,05422.6696,W,13.34,87.85,270324,,,A*7C;;51.00;50.00;133.00;25.26;63.06 -->27/03/24 08:05:55*;
MES=0.00; ; ; ; V/m; 3.56V; $GNRMC,120557.000,A,2127.3390,S,05422.6655,W,13.77,89.35,270324,,,A*70;;-72.00;-122.00;-172.00;25.26;63.06 -->27/03/24 08:05:56*;
MES=0.00; ; ; ; V/m; 3.56V; $GNRMC,120557.000,A,2127.3390,S,05422.6655,W,13.77,89.35,270324,,,A*70;;158.00;20.00;159.00;25.26;63.06 -->27/03/24 08:05:56*;
MES=0.00; ; ; ; V/m; 3.56V; $GNRMC,120557.000,A,2127.3390,S,05422.6655,W,13.77,89.35,270324,,,A*70;;-104.00;67.00;-173.00;25.26;63.06 -->27/03/24 08:05:56*;
MES=0.43; ; ; ; V/m; 3.56V; $GNRMC,120557.000,A,2127.3390,S,05422.6655,W,13.77,89.35,270324,,,A*70;;75.00;41.00;139.00;25.26;63.06 -->27/03/24 08:05:57*;
MES=0.37; ; ; ; V/m; 3.56V; $GNRMC,120558.000,A,2127.3389,S,05422.6615,W,13.09,88.67,270324,,,A*7C;;29.00;-67.00;57.00;25.26;63.06 -->27/03/24 08:05:57*;
MES=0.37; ; ; ; V/m; 3.56V; $GNRMC,120558.000,A,2127.3389,S,05422.6615,W,13.09,88.67,270324,,,A*7C;;-61.00;75.00;-10.00;25.26;63.06 -->27/03/24 08:05:57*;
MES=0.37; ; ; ; V/m; 3.56V; $GNRMC,120558.000,A,2127.3389,S,05422.6615,W,13.09,88.67,270324,,,A*7C;;4.00;-115.00;-87.00;25.26;63.06 -->27/03/24 08:05:57*;
MES=0.37; ; ; ; V/m; 3.56V; $GNRMC,120558.000,A,2127.3389,S,05422.6615,W,13.09,88.67,270324,,,A*7C;;-46.00;98.00;-6.00;25.26;63.06 -->27/03/24 08:05:58*;
MES=0.37; ; ; ; V/m; 3.56V; $GNRMC,120559.000,A,2127.3388,S,05422.6576,W,12.38,85.93,270324,,,A*7F;;86.00;-46.00;88.00;25.26;63.06 -->27/03/24 08:05:58*;
MES=0.37; ; ; ; V/m; 3.56V; $GNRMC,120559.000,A,2127.3388,S,05422.6576,W,12.38,85.93,270324,,,A*7F;;-23.00;99.00;154.00;25.26;63.06 -->27/03/24 08:05:58*;
MES=0.40; ; ; ; V/m; 3.56V; $GNRMC,120559.000,A,2127.3388,S,05422.6576,W,12.38,85.93,270324,,,A*7F;;-10.00;-163.00;-166.00;25.26;63.06 -->27/03/24 08:05:58*;
MES=0.43; ; ; ; V/m; 3.56V; $GNRMC,120600.000,A,2127.3387,S,05422.6537,W,13.36,90.26,270324,,,A*7F;;-54.00;118.00;-74.00;25.26;63.06 -->27/03/24 08:05:59*;
MES=0.41; ; ; ; V/m; 3.56V; $GNRMC,120600.000,A,2127.3387,S,05422.6537,W,13.36,90.26,270324,,,A*7F;;109.00;-24.00;164.00;25.26;63.06 -->27/03/24 08:05:59*;
MES=0.38; ; ; ; V/m; 3.56V; $GNRMC,120600.000,A,2127.3387,S,05422.6537,W,13.36,90.26,270324,,,A*7F;;-119.00;-89.00;-194.00;25.26;63.06 -->27/03/24 08:05:59*;
MES=0.38; ; ; ; V/m; 3.56V; $GNRMC,120600.000,A,2127.3387,S,05422.6537,W,13.36,90.26,270324,,,A*7F;;17.00;122.00;105.00;25.26;63.06 -->27/03/24 08:05:59*;
MES=0.43; ; ; ; V/m; 3.56V; $GNRMC,120601.000,A,2127.3385,S,05422.6498,W,12.94,86.74,270324,,,A*71;;44.00;-70.00;35.00;25.26;63.06 -->27/03/24 08:06:00*;
MES=0.36; ; ; ; V/m; 3.56V; $GNRMC,120601.000,A,2127.3385,S,05422.6498,W,12.94,86.74,270324,,,A*71;;-72.00;-38.00;-181.00;25.44;62.25 -->27/03/24 08:06:00*;
MES=0.36; ; ; ; V/m; 3.56V; $GNRMC,120601.000,A,2127.3385,S,05422.6498,W,12.94,86.74,270324,,,A*71;;55.00;92.00;152.00;25.44;62.25 -->27/03/24 08:06:00*;
MES=0.36; ; ; ; V/m; 3.56V; $GNRMC,120601.000,A,2127.3385,S,05422.6498,W,12.94,86.74,270324,,,A*71;;-8.00;-82.00;-12.00;25.44;62.25 -->27/03/24 08:06:01*;
MES=0.38; ; ; ; V/m; 3.56V; $GNRMC,120602.000,A,2127.3384,S,05422.6459,W,12.44,86.80,270324,,,A*78;;43.00;21.00;-42.00;25.44;62.25 -->27/03/24 08:06:01*;
MES=0.47; ; ; ; V/m; 3.56V; $GNRMC,120602.000,A,2127.3384,S,05422.6459,W,12.44,86.80,270324,,,A*78;;-11.00;-37.00;-125.00;25.44;62.25 -->27/03/24 08:06:01*;
MES=0.43; ; ; ; V/m; 3.56V; $GNRMC,120602.000,A,2127.3384,S,05422.6459,W,12.44,86.80,270324,,,A*78;;-74.00;165.00;125.00;25.44;62.25 -->27/03/24 08:06:01*;
MES=0.43; ; ; ; V/m; 3.56V; $GNRMC,120603.000,A,2127.3384,S,05422.6420,W,12.69,90.10,270324,,,A*76;;34.00;-132.00;-32.00;25.44;62.25 -->27/03/24 08:06:02*;
MES=0.53; ; ; ; V/m; 3.56V; $GNRMC,120603.000,A,2127.3384,S,05422.6420,W,12.69,90.10,270324,,,A*76;;16.00;56.00;-54.00;25.44;62.25 -->27/03/24 08:06:02*;
MES=0.43; ; ; ; V/m; 3.56V; $GNRMC,120603.000,A,2127.3384,S,05422.6420,W,12.69,90.10,270324,,,A*76;;-31.00;-1.00;39.00;25.44;62.25 -->27/03/24 08:06:02*;
MES=0.43; ; ; ; V/m; 3.56V; $GNRMC,120603.000,A,2127.3384,S,05422.6420,W,12.69,90.10,270324,,,A*76;;84.00;1.00;107.00;25.44;62.25 -->27/03/24 08:06:02*;
MES=0.46; ; ; ; V/m; 3.56V; $GNRMC,120604.000,A,2127.3383,S,05422.6382,W,12.06,87.62,270324,,,A*73;;-46.00;-13.00;-81.00;25.44;62.25 -->27/03/24 08:06:03*;
MES=0.35; ; ; ; V/m; 3.56V; $GNRMC,120604.000,A,2127.3383,S,05422.6382,W,12.06,87.62,270324,,,A*73;;-5.00;29.00;75.00;25.44;62.25 -->27/03/24 08:06:03*;
MES=0.35; ; ; ; V/m; 3.56V; $GNRMC,120604.000,A,2127.3383,S,05422.6382,W,12.06,87.62,270324,,,A*73;;-16.00;-94.00;-127.00;25.44;62.25 -->27/03/24 08:06:03*;
MES=0.40; ; ; ; V/m; 3.56V; $GNRMC,120604.000,A,2127.3383,S,05422.6382,W,12.06,87.62,270324,,,A*73;;18.00;68.00;67.00;25.44;62.25 -->27/03/24 08:06:04*;
MES=0.49; ; ; ; V/m; 3.56V; $GNRMC,120605.000,A,2127.3383,S,05422.6347,W,10.88,88.42,270324,,,A*72;;11.00;-28.00;-20.00;25.44;62.25 -->27/03/24 08:06:04*;
MES=0.41; ; ; ; V/m; 3.56V; $GNRMC,120605.000,A,2127.3383,S,05422.6347,W,10.88,88.42,270324,,,A*72;;-45.00;-1.00;7.00;25.44;62.25 -->27/03/24 08:06:04*;
MES=0.39; ; ; ; V/m; 3.56V; $GNRMC,120605.000,A,2127.3383,S,05422.6347,W,10.88,88.42,270324,,,A*72;;37.00;82.00;37.00;25.44;62.25 -->27/03/24 08:06:04*;
MES=0.34; ; ; ; V/m; 3.56V; $GNRMC,120606.000,A,2127.3381,S,05422.6316,W,10.02,87.29,270324,,,A*77;;-15.00;-84.00;-78.00;25.44;62.25 -->27/03/24 08:06:05*;
MES=0.34; ; ; ; V/m; 3.56V; $GNRMC,120606.000,A,2127.3381,S,05422.6316,W,10.02,87.29,270324,,,A*77;;20.00;31.00;13.00;25.44;62.25 -->27/03/24 08:06:05*;
MES=0.34; ; ; ; V/m; 3.56V; $GNRMC,120606.000,A,2127.3381,S,05422.6316,W,10.02,87.29,270324,,,A*77;;14.00;-40.00;-41.00;25.44;62.25 -->27/03/24 08:06:05*;
MES=0.38; ; ; ; V/m; 3.56V; $GNRMC,120606.000,A,2127.3381,S,05422.6316,W,10.02,87.29,270324,,,A*77;;-31.00;39.00;65.00;25.44;62.25 -->27/03/24 08:06:05*;
MES=0.33; ; ; ; V/m; 3.56V; $GNRMC,120607.000,A,2127.3378,S,05422.6288,W,9.00,84.40,270324,,,A*40;;-10.00;8.00;14.00;25.44;62.25 -->27/03/24 08:06:06*;
MES=0.32; ; ; ; V/m; 3.56V; $GNRMC,120607.000,A,2127.3378,S,05422.6288,W,9.00,84.40,270324,,,A*40;;-19.00;-56.00;-59.00;25.44;62.25 -->27/03/24 08:06:06*;
MES=0.32; ; ; ; V/m; 3.56V; $GNRMC,120607.000,A,2127.3378,S,05422.6288,W,9.00,84.40,270324,,,A*40;;17.00;53.00;23.00;25.44;62.25 -->27/03/24 08:06:06*;
MES=0.39; ; ; ; V/m; 3.56V; $GNRMC,120607.000,A,2127.3378,S,05422.6288,W,9.00,84.40,270324,,,A*40;;50.00;57.00;40.00;25.44;62.25 -->27/03/24 08:06:07*;
MES=0.22; ; ; ; V/m; 3.56V; $GNRMC,120608.000,A,2127.3377,S,05422.6261,W,8.97,87.58,270324,,,A*42;;-19.00;-92.00;-10.00;25.44;62.25 -->27/03/24 08:06:07*;
MES=0.22; ; ; ; V/m; 3.56V; $GNRMC,120608.000,A,2127.3377,S,05422.6261,W,8.97,87.58,270324,,,A*42;;32.00;-5.00;12.00;25.44;62.25 -->27/03/24 08:06:07*;
MES=0.36; ; ; ; V/m; 3.56V; $GNRMC,120608.000,A,2127.3377,S,05422.6261,W,8.97,87.58,270324,,,A*42;;-103.00;-24.00;-92.00;25.44;62.25 -->27/03/24 08:06:07*;
MES=0.37; ; ; ; V/m; 3.56V; $GNRMC,120609.000,A,2127.3376,S,05422.6236,W,7.90,91.43,270324,,,A*45;;18.00;24.00;93.00;25.44;62.25 -->27/03/24 08:06:08*;
MES=0.37; ; ; ; V/m; 3.56V; $GNRMC,120609.000,A,2127.3376,S,05422.6236,W,7.90,91.43,270324,,,A*45;;69.00;37.00;-39.00;25.44;62.25 -->27/03/24 08:06:08*;
MES=0.39; ; ; ; V/m; 3.56V; $GNRMC,120609.000,A,2127.3376,S,05422.6236,W,7.90,91.43,270324,,,A*45;;-47.00;-25.00;-39.00;25.44;62.25 -->27/03/24 08:06:08*;
MES=0.37; ; ; ; V/m; 3.56V; $GNRMC,120609.000,A,2127.3376,S,05422.6236,W,7.90,91.43,270324,,,A*45;;-4.00;82.00;144.00;25.44;62.25 -->27/03/24 08:06:08*;
MES=0.35; ; ; ; V/m; 3.56V; $GNRMC,120610.000,A,2127.3376,S,05422.6216,W,6.78,93.30,270324,,,A*4E;;30.00;-119.00;-66.00;25.44;62.25 -->27/03/24 08:06:09*;
MES=0.35; ; ; ; V/m; 3.56V; $GNRMC,120610.000,A,2127.3376,S,05422.6216,W,6.78,93.30,270324,,,A*4E;;-24.00;99.00;15.00;25.44;62.25 -->27/03/24 08:06:09*;
MES=0.42; ; ; ; V/m; 3.56V; $GNRMC,120610.000,A,2127.3376,S,05422.6216,W,6.78,93.30,270324,,,A*4E;;6.00;-3.00;-6.00;25.44;62.25 -->27/03/24 08:06:09*;
MES=0.44; ; ; ; V/m; 3.56V; $GNRMC,120610.000,A,2127.3376,S,05422.6216,W,6.78,93.30,270324,,,A*4E;;-7.00;-23.00;-69.00;25.44;62.25 -->27/03/24 08:06:10*;
MES=0.51; ; ; ; V/m; 3.56V; $GNRMC,120611.000,A,2127.3379,S,05422.6208,W,4.95,93.21,270324,,,A*4E;;4.00;9.00;48.00;25.44;62.25 -->27/03/24 08:06:10*;
MES=0.54; ; ; ; V/m; 3.56V; $GNRMC,120611.000,A,2127.3379,S,05422.6208,W,4.95,93.21,270324,,,A*4E;;13.00;-31.00;22.00;25.44;62.25 -->27/03/24 08:06:10*;
MES=0.58; ; ; ; V/m; 3.56V; $GNRMC,120611.000,A,2127.3379,S,05422.6208,W,4.95,93.21,270324,,,A*4E;;8.00;36.00;6.00;25.44;62.25 -->27/03/24 08:06:10*;
MES=0.47; ; ; ; V/m; 3.56V; $GNRMC,120611.000,A,2127.3379,S,05422.6208,W,4.95,93.21,270324,,,A*4E;;2.00;-28.00;-79.00;25.44;62.25 -->27/03/24 08:06:11*;
MES=0.43; ; ; ; V/m; 3.56V; $GNRMC,120612.000,A,2127.3380,S,05422.6194,W,4.33,93.47,270324,,,A*41;;-21.00;28.00;96.00;25.44;62.25 -->27/03/24 08:06:11*;
MES=0.43; ; ; ; V/m; 3.56V; $GNRMC,120612.000,A,2127.3380,S,05422.6194,W,4.33,93.47,270324,,,A*41;;25.00;-3.00;12.00;25.44;62.25 -->27/03/24 08:06:11*;
MES=0.47; ; ; ; V/m; 3.56V; $GNRMC,120612.000,A,2127.3380,S,05422.6194,W,4.33,93.47,270324,,,A*41;;-11.00;-67.00;-48.00;25.44;62.25 -->27/03/24 08:06:11*;
MES=0.35; ; ; ; V/m; 3.56V; $GNRMC,120613.000,A,2127.3380,S,05422.6183,W,3.38,95.54,270324,,,A*4E;;16.00;8.00;-29.00;25.44;62.25 -->27/03/24 08:06:12*;
MES=0.35; ; ; ; V/m; 3.56V; $GNRMC,120613.000,A,2127.3380,S,05422.6183,W,3.38,95.54,270324,,,A*4E;;-39.00;-10.00;54.00;25.44;62.25 -->27/03/24 08:06:12*;
MES=0.35; ; ; ; V/m; 3.56V; $GNRMC,120613.000,A,2127.3380,S,05422.6183,W,3.38,95.54,270324,,,A*4E;;53.00;13.00;53.00;25.44;62.25 -->27/03/24 08:06:12*;
MES=0.39; ; ; ; V/m; 3.56V; $GNRMC,120613.000,A,2127.3380,S,05422.6183,W,3.38,95.54,270324,,,A*4E;;-35.00;-113.00;-62.00;25.44;62.25 -->27/03/24 08:06:12*;
MES=0.34; ; ; ; V/m; 3.56V; $GNRMC,120614.000,A,2127.3381,S,05422.6174,W,3.01,95.63,270324,,,A*4E;;-5.00;1.00;63.00;25.44;62.25 -->27/03/24 08:06:13*;
MES=0.34; ; ; ; V/m; 3.56V; $GNRMC,120614.000,A,2127.3381,S,05422.6174,W,3.01,95.63,270324,,,A*4E;;66.00;-39.00;-59.00;25.44;62.25 -->27/03/24 08:06:13*;
MES=0.39; ; ; ; V/m; 3.56V; $GNRMC,120614.000,A,2127.3381,S,05422.6174,W,3.01,95.63,270324,,,A*4E;;-96.00;152.00;29.00;25.44;62.25 -->27/03/24 08:06:13*;
MES=0.30; ; ; ; V/m; 3.56V; $GNRMC,120614.000,A,2127.3381,S,05422.6174,W,3.01,95.63,270324,,,A*4E;;60.00;1.00;-91.00;25.44;62.25 -->27/03/24 08:06:14*;
MES=0.30; ; ; ; V/m; 3.56V; $GNRMC,120615.000,A,2127.3381,S,05422.6164,W,4.09,94.24,270324,,,A*43;;-91.00;-103.00;-84.00;25.44;62.25 -->27/03/24 08:06:14*;
MES=0.32; ; ; ; V/m; 3.56V; $GNRMC,120615.000,A,2127.3381,S,05422.6164,W,4.09,94.24,270324,,,A*43;;73.00;110.00;215.00;25.44;62.25 -->27/03/24 08:06:14*;
MES=0.42; ; ; ; V/m; 3.56V; $GNRMC,120615.000,A,2127.3381,S,05422.6164,W,4.09,94.24,270324,,,A*43;;34.00;-81.00;-120.00;25.44;62.25 -->27/03/24 08:06:14*;
MES=0.42; ; ; ; V/m; 3.56V; $GNRMC,120616.000,A,2127.3381,S,05422.6150,W,5.97,90.92,270324,,,A*48;;-100.00;59.00;33.00;25.44;62.25 -->27/03/24 08:06:15*;
MES=0.59; ; ; ; V/m; 3.56V; $GNRMC,120616.000,A,2127.3381,S,05422.6150,W,5.97,90.92,270324,,,A*48;;189.00;97.00;118.00;25.44;62.25 -->27/03/24 08:06:15*;
MES=0.76; ; ; ; V/m; 3.56V; $GNRMC,120616.000,A,2127.3381,S,05422.6150,W,5.97,90.92,270324,,,A*48;;-215.00;-158.00;-93.00;25.44;62.25 -->27/03/24 08:06:15*;
MES=0.71; ; ; ; V/m; 3.56V; $GNRMC,120616.000,A,2127.3381,S,05422.6150,W,5.97,90.92,270324,,,A*48;;144.00;91.00;63.00;25.44;62.25 -->27/03/24 08:06:15*;
MES=0.63; ; ; ; V/m; 3.56V; $GNRMC,120617.000,A,2127.3382,S,05422.6131,W,7.23,92.75,270324,,,A*4B;;-48.00;-139.00;-243.00;25.44;62.25 -->27/03/24 08:06:16*;
MES=0.56; ; ; ; V/m; 3.56V; $GNRMC,120617.000,A,2127.3382,S,05422.6131,W,7.23,92.75,270324,,,A*4B;;79.00;148.00;191.00;25.44;62.25 -->27/03/24 08:06:16*;
MES=0.44; ; ; ; V/m; 3.56V; $GNRMC,120617.000,A,2127.3382,S,05422.6131,W,7.23,92.75,270324,,,A*4B;;-136.00;58.00;103.00;25.44;62.25 -->27/03/24 08:06:16*;
MES=0.40; ; ; ; V/m; 3.56V; $GNRMC,120617.000,A,2127.3382,S,05422.6131,W,7.23,92.75,270324,,,A*4B;;98.00;-92.00;-86.00;25.44;62.25 -->27/03/24 08:06:17*;
MES=0.32; ; ; ; V/m; 3.56V; $GNRMC,120618.000,A,2127.3381,S,05422.6108,W,8.31,86.96,270324,,,A*49;;-95.00;-44.00;-167.00;25.44;62.25 -->27/03/24 08:06:17*;
MES=0.32; ; ; ; V/m; 3.56V; $GNRMC,120618.000,A,2127.3381,S,05422.6108,W,8.31,86.96,270324,,,A*49;;35.00;-51.00;79.00;25.44;62.25 -->27/03/24 08:06:17*;
MES=0.35; ; ; ; V/m; 3.56V; $GNRMC,120618.000,A,2127.3381,S,05422.6108,W,8.31,86.96,270324,,,A*49;;38.00;127.00;16.00;25.44;62.25 -->27/03/24 08:06:17*;
MES=0.35; ; ; ; V/m; 3.56V; $GNRMC,120619.000,A,2127.3380,S,05422.6083,W,9.05,88.96,270324,,,A*43;;-60.00;-35.00;46.00;25.44;62.25 -->27/03/24 08:06:18*;
MES=0.36; ; ; ; V/m; 3.56V; $GNRMC,120619.000,A,2127.3380,S,05422.6083,W,9.05,88.96,270324,,,A*43;;52.00;-81.00;-29.00;25.44;62.25 -->27/03/24 08:06:18*;
