Wavecontrol MonitEM data
Date: 03/07/2024 13:47:25
MonitEM Serial: 13MT0268
Probe serial: 13WP040364
Frecuencies: 100kHz-8GHz
Units: V/m
Date:,Time,Value,GPGGA,gps_time,lat,N/S,lon,E/O,fix,number_satellites,diution,height,M,geoid_height,M,,*CRC,GPGSA,A,3D_fix,PRN,PRN,PRN,PRN,PRN,PRN,PRN,PRN,PRN,PRN,PRN,PRN,PDOP,HDOP,VDOP*CRC
2024/03/07,08:54:22,0.77,$GPGGA,,,,,,0,,,,,,,,*66,$GPGSA,A,1,,,,,,,,,,,,,,,*1E
2024/03/07,08:54:22,0.80,$GPGGA,115156.3,1352.379160,S,04004.614549,W,1,09,1.0,204.8,M,-10.0,M,,*79,$GPGSA,A,3,08,10,18,23,26,27,28,31,32,,,,1.7,1.0,1.4*39
2024/03/07,08:54:23,0.79,$GPGGA,115157.2,1352.379209,S,04004.614754,W,1,09,1.0,204.2,M,-10.0,M,,*71,$GPGSA,A,3,08,10,18,23,26,27,28,31,32,,,,1.7,1.0,1.4*39
2024/03/07,08:54:24,0.79,$GPGGA,115158.2,1352.379185,S,04004.613546,W,1,10,0.8,202.4,M,-10.0,M,,*7E,$GPGSA,A,3,08,10,16,18,23,26,27,28,31,32,,,1.6,0.8,1.4*36
2024/03/07,08:54:25,0.77,$GPGGA,115159.2,1352.378973,S,04004.614063,W,1,10,0.8,202.5,M,-10.0,M,,*7B,$GPGSA,A,3,08,10,16,18,23,26,27,28,31,32,,,1.6,0.8,1.4*36
2024/03/07,08:54:26,0.78,$GPGGA,115200.1,1352.378969,S,04004.614346,W,1,10,0.8,203.8,M,-10.0,M,,*74,$GPGSA,A,3,08,10,16,18,23,26,27,28,31,32,,,1.6,0.8,1.4*36
2024/03/07,08:54:27,0.78,$GPGGA,115201.1,1352.378761,S,04004.613982,W,1,10,0.8,204.2,M,-10.0,M,,*7B,$GPGSA,A,3,08,10,16,18,23,26,27,28,31,32,,,1.6,0.8,1.4*36
2024/03/07,08:54:28,0.78,$GPGGA,115202.0,1352.379302,S,04004.613548,W,1,10,0.8,204.3,M,-10.0,M,,*72,$GPGSA,A,3,08,10,16,18,23,26,27,28,31,32,,,1.6,0.8,1.4*36
2024/03/07,08:54:28,0.80,$GPGGA,115203.0,1352.379351,S,04004.613551,W,1,10,0.8,204.4,M,-10.0,M,,*7A,$GPGSA,A,3,08,10,16,18,23,26,27,28,31,32,,,1.6,0.8,1.4*36
2024/03/07,08:54:29,0.76,$GPGGA,115204.0,1352.379069,S,04004.613503,W,1,10,0.8,204.4,M,-10.0,M,,*72,$GPGSA,A,3,08,10,16,18,23,26,27,28,31,32,,,1.6,0.8,1.4*36
2024/03/07,08:54:30,0.76,$GPGGA,115205.0,1352.378252,S,04004.613385,W,1,10,0.8,204.4,M,-10.0,M,,*70,$GPGSA,A,3,08,10,16,18,23,26,27,28,31,32,,,1.6,0.8,1.4*36
2024/03/07,08:54:31,0.77,$GPGGA,115206.0,1352.377224,S,04004.613236,W,1,10,0.8,204.4,M,-10.0,M,,*74,$GPGSA,A,3,08,10,16,18,23,26,27,28,31,32,,,1.6,0.8,1.4*36
2024/03/07,08:54:32,0.77,$GPGGA,115207.0,1352.376029,S,04004.613091,W,1,10,0.8,204.5,M,-10.0,M,,*75,$GPGSA,A,3,08,10,16,18,23,26,27,28,31,32,,,1.6,0.8,1.4*36
2024/03/07,08:54:33,0.79,$GPGGA,115208.0,1352.374757,S,04004.612888,W,1,10,0.8,204.5,M,-10.0,M,,*77,$GPGSA,A,3,08,10,16,18,23,26,27,28,31,32,,,1.6,0.8,1.4*36
2024/03/07,08:54:35,0.81,$GPGGA,115209.0,1352.373422,S,04004.612769,W,1,10,0.8,204.5,M,-10.0,M,,*70,$GPGSA,A,3,08,10,16,18,23,26,27,28,31,32,,,1.6,0.8,1.4*36
2024/03/07,08:54:35,0.75,$GPGGA,115210.0,1352.372199,S,04004.612665,W,1,10,0.8,204.7,M,-10.0,M,,*73,$GPGSA,A,3,08,10,16,18,23,26,27,28,31,32,,,1.6,0.8,1.4*36
2024/03/07,08:54:36,0.77,$GPGGA,115211.0,1352.370903,S,04004.612537,W,1,10,0.8,204.7,M,-10.0,M,,*7F,$GPGSA,A,3,08,10,16,18,23,26,27,28,31,32,,,1.6,0.8,1.4*36
2024/03/07,08:54:37,0.77,$GPGGA,115212.0,1352.369497,S,04004.612334,W,1,10,0.8,204.7,M,-10.0,M,,*71,$GPGSA,A,3,08,10,16,18,23,26,27,28,31,32,,,1.6,0.8,1.4*36
2024/03/07,08:54:38,0.77,$GPGGA,115213.0,1352.368179,S,04004.612097,W,1,10,0.8,204.6,M,-10.0,M,,*7F,$GPGSA,A,3,08,10,16,18,23,26,27,28,31,32,,,1.6,0.8,1.4*36
2024/03/07,08:54:39,0.76,$GPGGA,115214.0,1352.366943,S,04004.611871,W,1,10,0.8,204.8,M,-10.0,M,,*7A,$GPGSA,A,3,08,10,16,18,23,26,27,28,31,32,,,1.5,0.8,1.3*32
2024/03/07,08:54:40,0.75,$GPGGA,115215.0,1352.365726,S,04004.611577,W,1,10,0.8,204.8,M,-10.0,M,,*7E,$GPGSA,A,3,08,10,16,18,23,26,27,28,31,32,,,1.5,0.8,1.3*32
2024/03/07,08:54:41,0.73,$GPGGA,115216.0,1352.364629,S,04004.611224,W,1,10,0.8,204.8,M,-10.0,M,,*73,$GPGSA,A,3,08,10,16,18,23,26,27,28,31,32,,,1.5,0.8,1.3*32
2024/03/07,08:54:42,0.76,$GPGGA,115217.0,1352.363543,S,04004.610742,W,1,10,0.8,204.9,M,-10.0,M,,*7F,$GPGSA,A,3,08,10,16,18,23,26,27,28,31,32,,,1.5,0.8,1.3*32
2024/03/07,08:54:43,0.72,$GPGGA,115218.0,1352.362725,S,04004.610165,W,1,11,0.8,205.1,M,-10.0,M,,*78,$GPGSA,A,3,08,10,16,18,23,26,27,28,29,31,32,,1.5,0.8,1.3*39
2024/03/07,08:54:44,0.76,$GPGGA,115219.0,1352.362032,S,04004.609398,W,1,11,0.8,205.2,M,-10.0,M,,*73,$GPGSA,A,3,08,10,16,18,23,26,27,28,29,31,32,,1.5,0.8,1.3*39
2024/03/07,08:54:45,0.77,$GPGGA,115220.0,1352.361549,S,04004.608421,W,1,11,0.8,205.6,M,-10.0,M,,*73,$GPGSA,A,3,08,10,16,18,23,26,27,28,29,31,32,,1.5,0.8,1.3*39
2024/03/07,08:54:46,0.78,$GPGGA,115221.0,1352.361188,S,04004.607428,W,1,11,0.8,205.6,M,-10.0,M,,*7D,$GPGSA,A,3,08,10,16,18,23,26,27,28,29,31,32,,1.5,0.8,1.3*39
2024/03/07,08:54:47,0.79,$GPGGA,115222.0,1352.360966,S,04004.606322,W,1,11,0.8,205.4,M,-10.0,M,,*79,$GPGSA,A,3,08,10,16,18,23,26,27,28,29,31,32,,1.6,0.8,1.4*3D
2024/03/07,08:54:48,0.81,$GPGGA,115223.0,1352.360816,S,04004.605034,W,1,11,0.8,205.4,M,-10.0,M,,*79,$GPGSA,A,3,08,10,16,18,23,26,27,28,29,31,32,,1.6,0.8,1.4*3D
2024/03/07,08:54:49,0.77,$GPGGA,115224.0,1352.360703,S,04004.603755,W,1,11,0.8,204.7,M,-10.0,M,,*71,$GPGSA,A,3,08,10,16,18,23,26,27,28,29,31,32,,1.5,0.8,1.3*39
2024/03/07,08:54:50,0.77,$GPGGA,115225.0,1352.360477,S,04004.602285,W,1,11,0.8,204.4,M,-10.0,M,,*7A,$GPGSA,A,3,08,10,16,18,23,26,27,28,29,31,32,,1.6,0.8,1.4*3D
2024/03/07,08:54:51,0.79,$GPGGA,115226.0,1352.360325,S,04004.600972,W,1,11,0.8,204.5,M,-10.0,M,,*79,$GPGSA,A,3,08,10,16,18,23,26,27,28,29,31,32,,1.5,0.8,1.3*39
2024/03/07,08:54:52,0.77,$GPGGA,115227.0,1352.360074,S,04004.599559,W,1,11,0.8,204.4,M,-10.0,M,,*78,$GPGSA,A,3,08,10,16,18,23,26,27,28,29,31,32,,1.5,0.8,1.3*39
2024/03/07,08:54:53,0.75,$GPGGA,115228.0,1352.359674,S,04004.598023,W,1,11,0.8,204.1,M,-10.0,M,,*77,$GPGSA,A,3,08,10,16,18,23,26,27,28,29,31,32,,1.6,0.8,1.4*3D
2024/03/07,08:54:54,0.76,$GPGGA,115229.0,1352.359360,S,04004.596562,W,1,11,0.8,204.0,M,-10.0,M,,*79,$GPGSA,A,3,08,10,16,18,23,26,27,28,29,31,32,,1.5,0.8,1.3*39
2024/03/07,08:54:55,0.79,$GPGGA,115230.0,1352.359026,S,04004.595055,W,1,11,0.8,203.7,M,-10.0,M,,*72,$GPGSA,A,3,08,10,16,18,23,26,27,28,29,31,32,,1.6,0.8,1.4*3D
2024/03/07,08:54:56,0.76,$GPGGA,115231.0,1352.358543,S,04004.593381,W,1,11,0.8,203.5,M,-10.0,M,,*7A,$GPGSA,A,3,08,10,16,18,23,26,27,28,29,31,32,,1.5,0.8,1.3*39
2024/03/07,08:54:57,0.75,$GPGGA,115232.0,1352.358226,S,04004.591629,W,1,11,0.8,203.6,M,-10.0,M,,*7B,$GPGSA,A,3,08,10,16,18,23,26,27,28,29,31,32,,1.5,0.8,1.3*39
2024/03/07,08:54:58,0.79,$GPGGA,115233.0,1352.357817,S,04004.589675,W,1,11,0.8,203.3,M,-10.0,M,,*78,$GPGSA,A,3,08,10,16,18,23,26,27,28,29,31,32,,1.5,0.8,1.3*39
2024/03/07,08:54:59,0.76,$GPGGA,115234.0,1352.357434,S,04004.587771,W,1,11,0.8,203.3,M,-10.0,M,,*79,$GPGSA,A,3,08,10,16,18,23,26,27,28,29,31,32,,1.5,0.8,1.3*39
2024/03/07,08:55:00,0.75,$GPGGA,115235.0,1352.357174,S,04004.585765,W,1,11,0.8,203.5,M,-10.0,M,,*78,$GPGSA,A,3,08,10,16,18,23,26,27,28,29,31,32,,1.5,0.8,1.3*39
2024/03/07,08:55:01,0.76,$GPGGA,115236.0,1352.356781,S,04004.583644,W,1,11,0.8,203.5,M,-10.0,M,,*72,$GPGSA,A,3,08,10,16,18,23,26,27,28,29,31,32,,1.5,0.8,1.3*39
2024/03/07,08:55:02,0.75,$GPGGA,115237.0,1352.356288,S,04004.581584,W,1,11,0.8,203.6,M,-10.0,M,,*71,$GPGSA,A,3,08,10,16,18,23,26,27,28,29,31,32,,1.5,0.8,1.3*39
2024/03/07,08:55:03,0.77,$GPGGA,115238.0,1352.355786,S,04004.579616,W,1,11,0.8,203.6,M,-10.0,M,,*79,$GPGSA,A,3,08,10,16,18,23,26,27,28,29,31,32,,1.5,0.8,1.3*39
2024/03/07,08:55:04,0.73,$GPGGA,115239.0,1352.355308,S,04004.577837,W,1,11,0.8,203.5,M,-10.0,M,,*7A,$GPGSA,A,3,08,10,16,18,23,26,27,28,29,31,32,,1.5,0.8,1.3*39
2024/03/07,08:55:05,0.78,$GPGGA,115240.0,1352.354869,S,04004.576449,W,1,11,0.8,203.0,M,-10.0,M,,*78,$GPGSA,A,3,08,10,16,18,23,26,27,28,29,31,32,,1.5,0.8,1.3*39
2024/03/07,08:55:06,0.79,$GPGGA,115241.0,1352.354422,S,04004.575214,W,1,11,0.8,203.0,M,-10.0,M,,*77,$GPGSA,A,3,08,10,16,18,23,26,27,28,29,31,32,,1.5,0.8,1.3*39
2024/03/07,08:55:07,0.76,$GPGGA,115242.0,1352.354072,S,04004.574278,W,1,11,0.8,203.3,M,-10.0,M,,*7D,$GPGSA,A,3,08,10,16,18,23,26,27,28,29,31,32,,1.5,0.8,1.3*39
2024/03/07,08:55:08,0.77,$GPGGA,115243.0,1352.353653,S,04004.573391,W,1,11,0.8,203.3,M,-10.0,M,,*7F,$GPGSA,A,3,08,10,16,18,23,26,27,28,29,31,32,,1.5,0.8,1.3*39
2024/03/07,08:55:09,0.77,$GPGGA,115244.0,1352.353322,S,04004.572399,W,1,11,0.8,202.8,M,-10.0,M,,*78,$GPGSA,A,3,08,10,16,18,23,26,27,28,29,31,32,,1.5,0.8,1.3*39
2024/03/07,08:55:10,0.78,$GPGGA,115245.0,1352.353021,S,04004.571440,W,1,11,0.8,202.7,M,-10.0,M,,*76,$GPGSA,A,3,08,10,16,18,23,26,27,28,29,31,32,,1.5,0.8,1.3*39
2024/03/07,08:55:11,0.74,$GPGGA,115246.0,1352.352809,S,04004.570275,W,1,11,0.8,202.3,M,-10.0,M,,*73,$GPGSA,A,3,08,10,16,18,23,26,27,28,29,31,32,,1.5,0.8,1.3*39
2024/03/07,08:55:12,0.73,$GPGGA,115247.0,1352.352623,S,04004.568895,W,1,11,0.8,202.2,M,-10.0,M,,*78,$GPGSA,A,3,08,10,16,18,23,26,27,28,29,31,32,,1.5,0.8,1.3*39
2024/03/07,08:55:13,0.75,$GPGGA,115248.0,1352.352415,S,04004.567337,W,1,11,0.8,202.4,M,-10.0,M,,*7A,$GPGSA,A,3,08,10,16,18,23,26,27,28,29,31,32,,1.5,0.8,1.3*39
2024/03/07,08:55:14,0.71,$GPGGA,115249.0,1352.352162,S,04004.565640,W,1,11,0.8,201.9,M,-10.0,M,,*77,$GPGSA,A,3,08,10,16,18,23,26,27,28,29,31,32,,1.5,0.8,1.3*39
2024/03/07,08:55:15,0.75,$GPGGA,115250.0,1352.352004,S,04004.563945,W,1,11,0.8,201.5,M,-10.0,M,,*7E,$GPGSA,A,3,08,10,16,18,23,26,27,28,29,31,32,,1.5,0.8,1.3*39
2024/03/07,08:55:16,0.77,$GPGGA,115251.0,1352.351765,S,04004.562146,W,1,11,0.8,201.1,M,-10.0,M,,*72,$GPGSA,A,3,08,10,16,18,23,26,27,28,29,31,32,,1.6,0.8,1.4*3D
2024/03/07,08:55:17,0.74,$GPGGA,115252.0,1352.351444,S,04004.560320,W,1,11,0.8,200.3,M,-10.0,M,,*72,$GPGSA,A,3,08,10,16,18,23,26,27,28,29,31,32,,1.6,0.8,1.4*3D
2024/03/07,08:55:18,0.75,$GPGGA,115253.0,1352.351144,S,04004.558570,W,1,11,0.8,200.4,M,-10.0,M,,*79,$GPGSA,A,3,08,10,16,18,23,26,27,28,29,31,32,,1.6,0.8,1.4*3D
2024/03/07,08:55:19,0.78,$GPGGA,115254.0,1352.350818,S,04004.556852,W,1,11,0.8,200.2,M,-10.0,M,,*7A,$GPGSA,A,3,08,10,16,18,23,26,27,28,29,31,32,,1.6,0.8,1.4*3D
2024/03/07,08:55:20,0.83,$GPGGA,115255.0,1352.350437,S,04004.555071,W,1,11,0.8,200.3,M,-10.0,M,,*71,$GPGSA,A,3,08,10,16,18,23,26,27,28,29,31,32,,1.6,0.8,1.4*3D
2024/03/07,08:55:21,0.75,$GPGGA,115256.0,1352.350168,S,04004.553320,W,1,11,0.8,200.3,M,-10.0,M,,*7C,$GPGSA,A,3,08,10,16,18,23,26,27,28,29,31,32,,1.6,0.8,1.4*3D
2024/03/07,08:55:22,0.72,$GPGGA,115257.0,1352.349897,S,04004.551524,W,1,10,0.8,200.2,M,-10.0,M,,*7C,$GPGSA,A,3,08,10,16,18,23,26,27,28,31,32,,,1.5,0.8,1.3*32
2024/03/07,08:55:23,0.72,$GPGGA,115258.0,1352.349555,S,04004.549900,W,1,10,0.8,199.8,M,-10.0,M,,*7A,$GPGSA,A,3,08,10,16,18,23,26,27,28,31,32,,,1.6,0.8,1.4*36
2024/03/07,08:55:24,0.72,$GPGGA,115259.0,1352.349138,S,04004.548290,W,1,10,0.8,199.5,M,-10.0,M,,*7A,$GPGSA,A,3,08,10,16,18,23,26,27,28,31,32,,,1.6,0.8,1.4*36
2024/03/07,08:55:25,0.73,$GPGGA,115300.0,1352.348723,S,04004.546720,W,1,10,0.8,199.4,M,-10.0,M,,*7B,$GPGSA,A,3,08,10,16,18,23,26,27,28,31,32,,,1.6,0.8,1.4*36
2024/03/07,08:55:26,0.75,$GPGGA,115301.0,1352.348268,S,04004.545332,W,1,10,0.8,199.5,M,-10.0,M,,*75,$GPGSA,A,3,08,10,16,18,23,26,27,28,31,32,,,1.6,0.8,1.4*36
2024/03/07,08:55:27,0.75,$GPGGA,115302.0,1352.347741,S,04004.543958,W,1,11,0.8,199.2,M,-10.0,M,,*71,$GPGSA,A,3,08,10,16,18,23,26,27,28,29,31,32,,1.5,0.8,1.3*39
2024/03/07,08:55:28,0.75,$GPGGA,115303.0,1352.347177,S,04004.542551,W,1,11,0.8,198.8,M,-10.0,M,,*7C,$GPGSA,A,3,08,10,16,18,23,26,27,28,29,31,32,,1.5,0.8,1.3*39
2024/03/07,08:55:29,0.75,$GPGGA,115304.0,1352.346584,S,04004.541072,W,1,11,0.8,198.7,M,-10.0,M,,*7A,$GPGSA,A,3,08,10,16,18,23,26,27,28,29,31,32,,1.5,0.8,1.3*39
2024/03/07,08:55:30,0.77,$GPGGA,115305.0,1352.345902,S,04004.539446,W,1,11,0.8,198.8,M,-10.0,M,,*79,$GPGSA,A,3,08,10,16,18,23,26,27,28,29,31,32,,1.5,0.8,1.3*39
2024/03/07,08:55:31,0.74,$GPGGA,115306.0,1352.345237,S,04004.537761,W,1,11,0.8,199.1,M,-10.0,M,,*77,$GPGSA,A,3,08,10,16,18,23,26,27,28,29,31,32,,1.6,0.8,1.4*3D
2024/03/07,08:55:32,0.74,$GPGGA,115307.0,1352.344580,S,04004.535913,W,1,11,0.8,198.8,M,-10.0,M,,*7D,$GPGSA,A,3,08,10,16,18,23,26,27,28,29,31,32,,1.6,0.8,1.4*3D
2024/03/07,08:55:33,0.72,$GPGGA,115308.0,1352.343812,S,04004.533935,W,1,11,0.8,198.8,M,-10.0,M,,*71,$GPGSA,A,3,08,10,16,18,23,26,27,28,29,31,32,,1.6,0.8,1.4*3D
2024/03/07,08:55:34,0.72,$GPGGA,115309.0,1352.343150,S,04004.531977,W,1,11,0.8,198.8,M,-10.0,M,,*7B,$GPGSA,A,3,08,10,16,18,23,26,27,28,29,31,32,,1.6,0.8,1.4*3D
2024/03/07,08:55:35,0.75,$GPGGA,115310.0,1352.342608,S,04004.530200,W,1,11,0.8,198.8,M,-10.0,M,,*72,$GPGSA,A,3,08,10,16,18,23,26,27,28,29,31,32,,1.6,0.8,1.4*3D
2024/03/07,08:55:36,0.74,$GPGGA,115311.0,1352.342048,S,04004.528501,W,1,10,0.8,199.1,M,-10.0,M,,*77,$GPGSA,A,3,08,10,16,18,23,26,27,28,31,32,,,1.6,0.8,1.4*36
2024/03/07,08:55:37,0.76,$GPGGA,115312.0,1352.341633,S,04004.526956,W,1,10,0.8,199.6,M,-10.0,M,,*7A,$GPGSA,A,3,08,10,16,18,23,26,27,28,31,32,,,1.6,0.8,1.4*36
2024/03/07,08:55:38,0.73,$GPGGA,115313.0,1352.341215,S,04004.525525,W,1,10,0.8,199.7,M,-10.0,M,,*71,$GPGSA,A,3,08,10,16,18,23,26,27,28,31,32,,,1.6,0.8,1.4*36
2024/03/07,08:55:39,0.77,$GPGGA,115314.0,1352.340687,S,04004.524527,W,1,10,0.8,199.8,M,-10.0,M,,*74,$GPGSA,A,3,08,10,16,18,23,26,27,28,31,32,,,1.6,0.8,1.4*36
2024/03/07,08:55:40,0.75,$GPGGA,115315.0,1352.340342,S,04004.523495,W,1,10,0.8,200.2,M,-10.0,M,,*7F,$GPGSA,A,3,08,10,16,18,23,26,27,28,31,32,,,1.6,0.8,1.4*36
2024/03/07,08:55:41,0.78,$GPGGA,115316.0,1352.339912,S,04004.522677,W,1,10,0.8,200.8,M,-10.0,M,,*78,$GPGSA,A,3,08,10,16,18,23,26,27,28,31,32,,,1.6,0.8,1.4*36
2024/03/07,08:55:42,0.75,$GPGGA,115317.0,1352.339470,S,04004.521923,W,1,10,0.9,201.1,M,-10.0,M,,*74,$GPGSA,A,3,08,10,16,18,23,26,27,28,31,32,,,1.6,0.9,1.4*37
2024/03/07,08:55:43,0.77,$GPGGA,115318.0,1352.338883,S,04004.521227,W,1,10,0.8,201.3,M,-10.0,M,,*76,$GPGSA,A,3,08,10,16,18,23,26,27,28,31,32,,,1.6,0.8,1.4*36
2024/03/07,08:55:44,0.73,$GPGGA,115319.0,1352.338039,S,04004.520669,W,1,10,0.8,201.5,M,-10.0,M,,*77,$GPGSA,A,3,08,10,16,18,23,26,27,28,31,32,,,1.6,0.8,1.4*36
2024/03/07,08:55:45,0.72,$GPGGA,115320.0,1352.336822,S,04004.520123,W,1,10,0.8,201.8,M,-10.0,M,,*75,$GPGSA,A,3,08,10,16,18,23,26,27,28,31,32,,,1.6,0.8,1.4*36
2024/03/07,08:55:46,0.74,$GPGGA,115321.0,1352.334980,S,04004.520088,W,1,10,0.8,202.0,M,-10.0,M,,*74,$GPGSA,A,3,08,10,16,18,23,26,27,28,31,32,,,1.6,0.8,1.4*36
2024/03/07,08:55:47,0.76,$GPGGA,115322.0,1352.333288,S,04004.520237,W,1,10,0.8,202.3,M,-10.0,M,,*76,$GPGSA,A,3,08,10,16,18,23,26,27,28,31,32,,,1.6,0.8,1.4*36
2024/03/07,08:55:48,0.77,$GPGGA,115323.0,1352.331379,S,04004.520518,W,1,10,0.8,202.3,M,-10.0,M,,*70,$GPGSA,A,3,08,10,16,18,23,26,27,28,31,32,,,1.6,0.8,1.4*36
2024/03/07,08:55:49,0.78,$GPGGA,115324.0,1352.329242,S,04004.520996,W,1,10,0.8,202.5,M,-10.0,M,,*7B,$GPGSA,A,3,08,10,16,18,23,26,27,28,31,32,,,1.6,0.8,1.4*36
2024/03/07,08:55:50,0.75,$GPGGA,115325.0,1352.327072,S,04004.521698,W,1,10,0.8,202.5,M,-10.0,M,,*75,$GPGSA,A,3,08,10,16,18,23,26,27,28,31,32,,,1.6,0.8,1.4*36
2024/03/07,08:55:51,0.77,$GPGGA,115326.0,1352.324741,S,04004.522509,W,1,10,0.8,202.5,M,-10.0,M,,*7A,$GPGSA,A,3,08,10,16,18,23,26,27,28,31,32,,,1.6,0.8,1.4*36
2024/03/07,08:55:52,0.76,$GPGGA,115327.0,1352.322319,S,04004.523318,W,1,10,0.8,202.5,M,-10.0,M,,*73,$GPGSA,A,3,08,10,16,18,23,26,27,28,31,32,,,1.6,0.8,1.4*36
2024/03/07,08:55:53,0.78,$GPGGA,115328.0,1352.317667,S,04004.525161,W,1,10,0.9,202.5,M,-10.0,M,,*7D,$GPGSA,A,3,08,10,16,18,23,26,27,28,31,32,,,1.6,0.9,1.4*37
2024/03/07,08:55:54,0.76,$GPGGA,115329.0,1352.314742,S,04004.525902,W,1,10,0.9,202.7,M,-10.0,M,,*76,$GPGSA,A,3,08,10,16,18,23,26,27,28,31,32,,,1.6,0.9,1.4*37
2024/03/07,08:55:55,0.75,$GPGGA,115330.0,1352.312200,S,04004.526769,W,1,10,0.8,202.5,M,-10.0,M,,*78,$GPGSA,A,3,08,10,16,18,23,26,27,28,31,32,,,1.6,0.8,1.4*36
2024/03/07,08:55:56,0.73,$GPGGA,115331.0,1352.309252,S,04004.527503,W,1,10,0.8,202.5,M,-10.0,M,,*7B,$GPGSA,A,3,08,10,16,18,23,26,27,28,31,32,,,1.6,0.8,1.4*36
2024/03/07,08:55:57,0.77,$GPGGA,115332.0,1352.306229,S,04004.528313,W,1,10,0.8,202.8,M,-10.0,M,,*7E,$GPGSA,A,3,08,10,16,18,23,26,27,28,31,32,,,1.6,0.8,1.4*36
2024/03/07,08:55:58,0.79,$GPGGA,115333.0,1352.303202,S,04004.529141,W,1,10,0.8,202.7,M,-10.0,M,,*78,$GPGSA,A,3,08,10,16,18,23,26,27,28,31,32,,,1.6,0.8,1.4*36
2024/03/07,08:55:59,0.79,$GPGGA,115334.0,1352.300339,S,04004.529814,W,1,10,0.8,202.8,M,-10.0,M,,*73,$GPGSA,A,3,08,10,16,18,23,26,27,28,31,32,,,1.6,0.8,1.4*36
2024/03/07,08:56:00,0.74,$GPGGA,115335.0,1352.297548,S,04004.530492,W,1,10,0.8,202.9,M,-10.0,M,,*76,$GPGSA,A,3,08,10,16,18,23,26,27,28,31,32,,,1.6,0.8,1.4*36
2024/03/07,08:56:01,0.78,$GPGGA,115336.0,1352.295039,S,04004.531623,W,1,10,0.8,202.8,M,-10.0,M,,*7C,$GPGSA,A,3,08,10,16,18,23,26,27,28,31,32,,,1.6,0.8,1.4*36
2024/03/07,08:56:02,0.80,$GPGGA,115337.0,1352.292530,S,04004.532582,W,1,10,0.8,202.8,M,-10.0,M,,*7D,$GPGSA,A,3,08,10,16,18,23,26,27,28,31,32,,,1.6,0.8,1.4*36
2024/03/07,08:56:03,0.78,$GPGGA,115338.0,1352.290213,S,04004.533371,W,1,10,0.8,202.8,M,-10.0,M,,*7D,$GPGSA,A,3,08,10,16,18,23,26,27,28,31,32,,,1.6,0.8,1.4*36
2024/03/07,08:56:04,0.74,$GPGGA,115339.0,1352.287765,S,04004.533802,W,1,10,0.8,202.7,M,-10.0,M,,*7E,$GPGSA,A,3,08,10,16,18,23,26,27,28,31,32,,,1.6,0.8,1.4*36
2024/03/07,08:56:05,0.72,$GPGGA,115340.0,1352.285068,S,04004.534419,W,1,10,0.8,202.9,M,-10.0,M,,*77,$GPGSA,A,3,08,10,16,18,23,26,27,28,31,32,,,1.6,0.8,1.4*36
2024/03/07,08:56:06,0.72,$GPGGA,115341.0,1352.282404,S,04004.534894,W,1,10,0.8,202.8,M,-10.0,M,,*77,$GPGSA,A,3,08,10,16,18,23,26,27,28,31,32,,,1.6,0.8,1.4*36
2024/03/07,08:56:07,0.72,$GPGGA,115342.0,1352.279685,S,04004.535598,W,1,10,0.8,203.0,M,-10.0,M,,*72,$GPGSA,A,3,08,10,16,18,23,26,27,28,31,32,,,1.6,0.8,1.4*36
2024/03/07,08:56:08,0.75,$GPGGA,115343.0,1352.276634,S,04004.536488,W,1,10,0.8,203.2,M,-10.0,M,,*77,$GPGSA,A,3,08,10,16,18,23,26,27,28,31,32,,,1.6,0.8,1.4*36
2024/03/07,08:56:09,0.74,$GPGGA,115344.0,1352.273457,S,04004.537391,W,1,10,0.8,203.3,M,-10.0,M,,*7D,$GPGSA,A,3,08,10,16,18,23,26,27,28,31,32,,,1.6,0.8,1.4*36
2024/03/07,08:56:10,0.74,$GPGGA,115345.0,1352.270148,S,04004.538462,W,1,10,0.8,203.4,M,-10.0,M,,*77,$GPGSA,A,3,08,10,16,18,23,26,27,28,31,32,,,1.6,0.8,1.4*36
2024/03/07,08:56:11,0.75,$GPGGA,115346.0,1352.266922,S,04004.539314,W,1,10,0.8,203.5,M,-10.0,M,,*71,$GPGSA,A,3,08,10,16,18,23,26,27,28,31,32,,,1.6,0.8,1.4*36
2024/03/07,08:56:12,0.72,$GPGGA,115347.0,1352.263609,S,04004.540203,W,1,10,0.8,203.6,M,-10.0,M,,*79,$GPGSA,A,3,08,10,16,18,23,26,27,28,31,32,,,1.6,0.8,1.4*36
2024/03/07,08:56:13,0.72,$GPGGA,115348.0,1352.260069,S,04004.541086,W,1,10,0.8,203.8,M,-10.0,M,,*75,$GPGSA,A,3,08,10,16,18,23,26,27,28,31,32,,,1.6,0.8,1.4*36
2024/03/07,08:56:14,0.71,$GPGGA,115349.0,1352.256608,S,04004.541909,W,1,10,0.8,203.8,M,-10.0,M,,*7E,$GPGSA,A,3,08,10,16,18,23,26,27,28,31,32,,,1.6,0.8,1.4*36
2024/03/07,08:56:15,0.74,$GPGGA,115350.0,1352.253363,S,04004.542621,W,1,10,0.8,204.2,M,-10.0,M,,*70,$GPGSA,A,3,08,10,16,18,23,26,27,28,31,32,,,1.6,0.8,1.4*36
2024/03/07,08:56:16,0.73,$GPGGA,115351.0,1352.250139,S,04004.543434,W,1,10,0.8,204.4,M,-10.0,M,,*7E,$GPGSA,A,3,08,10,16,18,23,26,27,28,31,32,,,1.6,0.8,1.4*36
2024/03/07,08:56:17,0.72,$GPGGA,115352.0,1352.246979,S,04004.544187,W,1,10,0.8,204.5,M,-10.0,M,,*7D,$GPGSA,A,3,08,10,16,18,23,26,27,28,31,32,,,1.5,0.8,1.3*32
2024/03/07,08:56:18,0.74,$GPGGA,115353.0,1352.243836,S,04004.544972,W,1,10,0.8,204.5,M,-10.0,M,,*71,$GPGSA,A,3,08,10,16,18,23,26,27,28,31,32,,,1.6,0.8,1.4*36
2024/03/07,08:56:19,0.71,$GPGGA,115354.0,1352.240831,S,04004.545636,W,1,10,0.8,204.6,M,-10.0,M,,*7F,$GPGSA,A,3,08,10,16,18,23,26,27,28,31,32,,,1.6,0.8,1.4*36
2024/03/07,08:56:20,0.72,$GPGGA,115355.0,1352.238022,S,04004.546114,W,1,10,0.8,204.5,M,-10.0,M,,*7C,$GPGSA,A,3,08,10,16,18,23,26,27,28,31,32,,,1.6,0.8,1.4*36
2024/03/07,08:56:21,0.72,$GPGGA,115356.0,1352.234803,S,04004.547211,W,1,10,0.8,204.7,M,-10.0,M,,*7D,$GPGSA,A,3,08,10,16,18,23,26,27,28,31,32,,,1.6,0.8,1.4*36
2024/03/07,08:56:22,0.73,$GPGGA,115357.0,1352.231623,S,04004.548073,W,1,10,0.8,204.8,M,-10.0,M,,*73,$GPGSA,A,3,08,10,16,18,23,26,27,28,31,32,,,1.6,0.8,1.4*36
2024/03/07,08:56:23,0.72,$GPGGA,115358.0,1352.228510,S,04004.548961,W,1,10,0.8,204.9,M,-10.0,M,,*7C,$GPGSA,A,3,08,10,16,18,23,26,27,28,31,32,,,1.6,0.8,1.4*36
2024/03/07,08:56:24,0.71,$GPGGA,115359.0,1352.225335,S,04004.549967,W,1,10,0.8,204.9,M,-10.0,M,,*76,$GPGSA,A,3,08,10,16,18,23,26,27,28,31,32,,,1.6,0.8,1.4*36
2024/03/07,08:56:25,0.70,$GPGGA,115400.0,1352.222071,S,04004.550979,W,1,10,0.8,204.8,M,-10.0,M,,*7F,$GPGSA,A,3,08,10,16,18,23,26,27,28,31,32,,,1.6,0.8,1.4*36
2024/03/07,08:56:26,0.71,$GPGGA,115401.0,1352.218882,S,04004.551969,W,1,10,0.8,204.8,M,-10.0,M,,*73,$GPGSA,A,3,08,10,16,18,23,26,27,28,31,32,,,1.6,0.8,1.4*36
2024/03/07,08:56:27,0.72,$GPGGA,115402.0,1352.215732,S,04004.552775,W,1,10,0.8,204.8,M,-10.0,M,,*79,$GPGSA,A,3,08,10,16,18,23,26,27,28,31,32,,,1.6,0.8,1.4*36
2024/03/07,08:56:28,0.72,$GPGGA,115403.0,1352.212519,S,04004.553675,W,1,10,0.8,204.7,M,-10.0,M,,*7B,$GPGSA,A,3,08,10,16,18,23,26,27,28,31,32,,,1.6,0.8,1.4*36
2024/03/07,08:56:29,0.72,$GPGGA,115404.0,1352.209213,S,04004.554746,W,1,10,0.8,204.7,M,-10.0,M,,*7D,$GPGSA,A,3,08,10,16,18,23,26,27,28,31,32,,,1.5,0.8,1.3*32
2024/03/07,08:56:30,0.73,$GPGGA,115405.0,1352.206168,S,04004.555766,W,1,11,0.8,204.9,M,-10.0,M,,*70,$GPGSA,A,3,08,10,16,18,23,26,27,28,29,31,32,,1.5,0.8,1.3*39
2024/03/07,08:56:31,0.70,$GPGGA,115406.0,1352.203009,S,04004.556567,W,1,11,0.8,205.2,M,-10.0,M,,*7A,$GPGSA,A,3,08,10,16,18,23,26,27,28,29,31,32,,1.5,0.8,1.3*39
2024/03/07,08:56:32,0.73,$GPGGA,115407.0,1352.199878,S,04004.557480,W,1,11,0.8,205.5,M,-10.0,M,,*7B,$GPGSA,A,3,08,10,16,18,23,26,27,28,29,31,32,,1.5,0.8,1.3*39
2024/03/07,08:56:33,0.71,$GPGGA,115408.0,1352.196832,S,04004.558745,W,1,11,0.8,205.6,M,-10.0,M,,*73,$GPGSA,A,3,08,10,16,18,23,26,27,28,29,31,32,,1.5,0.8,1.3*39
2024/03/07,08:56:34,0.74,$GPGGA,115409.0,1352.193453,S,04004.560090,W,1,11,0.8,205.5,M,-10.0,M,,*7B,$GPGSA,A,3,08,10,16,18,23,26,27,28,29,31,32,,1.5,0.8,1.3*39
2024/03/07,08:56:35,0.72,$GPGGA,115410.0,1352.190237,S,04004.561038,W,1,11,0.8,205.4,M,-10.0,M,,*76,$GPGSA,A,3,08,10,16,18,23,26,27,28,29,31,32,,1.6,0.8,1.4*3D
2024/03/07,08:56:36,0.71,$GPGGA,115411.0,1352.186873,S,04004.561782,W,1,11,0.8,205.2,M,-10.0,M,,*7A,$GPGSA,A,3,08,10,16,18,23,26,27,28,29,31,32,,1.6,0.8,1.4*3D
2024/03/07,08:56:37,0.72,$GPGGA,115412.0,1352.183399,S,04004.562601,W,1,11,0.8,205.0,M,-10.0,M,,*78,$GPGSA,A,3,08,10,16,18,23,26,27,28,29,31,32,,1.5,0.8,1.3*39
2024/03/07,08:56:38,0.70,$GPGGA,115413.0,1352.179996,S,04004.562905,W,1,11,0.8,204.7,M,-10.0,M,,*74,$GPGSA,A,3,08,10,16,18,23,26,27,28,29,31,32,,1.5,0.8,1.3*39
2024/03/07,08:56:39,0.72,$GPGGA,115414.0,1352.176683,S,04004.563708,W,1,11,0.8,204.6,M,-10.0,M,,*74,$GPGSA,A,3,08,10,16,18,23,26,27,28,29,31,32,,1.5,0.8,1.3*39
2024/03/07,08:56:40,0.72,$GPGGA,115415.0,1352.173254,S,04004.564561,W,1,10,0.8,204.4,M,-10.0,M,,*77,$GPGSA,A,3,08,10,16,18,23,26,27,28,31,32,,,1.5,0.8,1.3*32
2024/03/07,08:56:41,0.71,$GPGGA,115416.0,1352.170048,S,04004.565586,W,1,10,0.8,204.3,M,-10.0,M,,*77,$GPGSA,A,3,08,10,16,18,23,26,27,28,31,32,,,1.5,0.8,1.3*32
2024/03/07,08:56:42,0.70,$GPGGA,115417.0,1352.166738,S,04004.566608,W,1,10,0.8,204.2,M,-10.0,M,,*76,$GPGSA,A,3,08,10,16,18,23,26,27,28,31,32,,,1.5,0.8,1.3*32
2024/03/07,08:56:43,0.69,$GPGGA,115418.0,1352.163881,S,04004.567531,W,1,10,0.8,204.1,M,-10.0,M,,*7A,$GPGSA,A,3,08,10,16,18,23,26,27,28,31,32,,,1.5,0.8,1.3*32
2024/03/07,08:56:44,0.70,$GPGGA,115419.0,1352.161071,S,04004.568507,W,1,11,0.8,204.3,M,-10.0,M,,*77,$GPGSA,A,3,08,10,16,18,23,26,27,28,29,31,32,,1.5,0.8,1.3*39
2024/03/07,08:56:45,0.69,$GPGGA,115420.0,1352.158292,S,04004.569702,W,1,11,0.8,204.4,M,-10.0,M,,*79,$GPGSA,A,3,08,10,16,18,23,26,27,28,29,31,32,,1.5,0.8,1.3*39
2024/03/07,08:56:46,0.74,$GPGGA,115421.0,1352.155431,S,04004.570384,W,1,11,0.8,204.3,M,-10.0,M,,*7F,$GPGSA,A,3,08,10,16,18,23,26,27,28,29,31,32,,1.5,0.8,1.3*39
2024/03/07,08:56:47,0.74,$GPGGA,115422.0,1352.152941,S,04004.571284,W,1,11,0.8,204.4,M,-10.0,M,,*76,$GPGSA,A,3,08,10,16,18,23,26,27,28,29,31,32,,1.5,0.8,1.3*39
2024/03/07,08:56:48,0.73,$GPGGA,115423.0,1352.150324,S,04004.571928,W,1,11,0.8,204.5,M,-10.0,M,,*70,$GPGSA,A,3,08,10,16,18,23,26,27,28,29,31,32,,1.5,0.8,1.3*39
2024/03/07,08:56:49,0.74,$GPGGA,115424.0,1352.147989,S,04004.572625,W,1,11,0.8,204.6,M,-10.0,M,,*7E,$GPGSA,A,3,08,10,16,18,23,26,27,28,29,31,32,,1.5,0.8,1.3*39
2024/03/07,08:56:50,0.70,$GPGGA,115425.0,1352.145390,S,04004.573553,W,1,11,0.8,204.9,M,-10.0,M,,*73,$GPGSA,A,3,08,10,16,18,23,26,27,28,29,31,32,,1.5,0.8,1.3*39
2024/03/07,08:56:51,0.72,$GPGGA,115426.0,1352.142985,S,04004.574726,W,1,11,0.8,205.5,M,-10.0,M,,*73,$GPGSA,A,3,08,10,16,18,23,26,27,28,29,31,32,,1.5,0.8,1.3*39
2024/03/07,08:56:52,0.71,$GPGGA,115427.0,1352.140883,S,04004.575515,W,1,11,0.8,205.9,M,-10.0,M,,*78,$GPGSA,A,3,08,10,16,18,23,26,27,28,29,31,32,,1.5,0.8,1.3*39
2024/03/07,08:56:53,0.71,$GPGGA,115428.0,1352.138757,S,04004.576183,W,1,11,0.8,206.2,M,-10.0,M,,*7E,$GPGSA,A,3,08,10,16,18,23,26,27,28,29,31,32,,1.5,0.8,1.3*39
2024/03/07,08:56:54,0.74,$GPGGA,115429.0,1352.137331,S,04004.576547,W,1,11,0.8,206.6,M,-10.0,M,,*7C,$GPGSA,A,3,08,10,16,18,23,26,27,28,29,31,32,,1.5,0.8,1.3*39
2024/03/07,08:56:55,0.72,$GPGGA,115430.0,1352.135857,S,04004.576925,W,1,11,0.8,206.7,M,-10.0,M,,*74,$GPGSA,A,3,08,10,16,18,23,26,27,28,29,31,32,,1.5,0.8,1.3*39
2024/03/07,08:56:56,0.72,$GPGGA,115431.0,1352.134413,S,04004.576969,W,1,11,0.8,206.6,M,-10.0,M,,*71,$GPGSA,A,3,08,10,16,18,23,26,27,28,29,31,32,,1.5,0.8,1.3*39
2024/03/07,08:56:57,0.73,$GPGGA,115432.0,1352.132819,S,04004.577047,W,1,11,0.8,206.6,M,-10.0,M,,*76,$GPGSA,A,3,08,10,16,18,23,26,27,28,29,31,32,,1.5,0.8,1.3*39
2024/03/07,08:56:58,0.72,$GPGGA,115433.0,1352.131061,S,04004.576771,W,1,11,0.8,206.5,M,-10.0,M,,*73,$GPGSA,A,3,08,10,16,18,23,26,27,28,29,31,32,,1.5,0.8,1.3*39
2024/03/07,08:56:59,0.72,$GPGGA,115434.0,1352.129399,S,04004.576409,W,1,11,0.8,206.6,M,-10.0,M,,*76,$GPGSA,A,3,08,10,16,18,23,26,27,28,29,31,32,,1.5,0.8,1.3*39
2024/03/07,08:57:00,0.72,$GPGGA,115435.0,1352.127641,S,04004.575783,W,1,11,0.8,206.7,M,-10.0,M,,*7A,$GPGSA,A,3,08,10,16,18,23,26,27,28,29,31,32,,1.5,0.8,1.3*39
2024/03/07,08:57:01,0.72,$GPGGA,115436.0,1352.125661,S,04004.574748,W,1,10,0.8,206.8,M,-10.0,M,,*71,$GPGSA,A,3,10,16,18,23,26,27,28,29,31,32,,,1.5,0.8,1.3*31
2024/03/07,08:57:02,0.70,$GPGGA,115437.0,1352.123732,S,04004.573602,W,1,10,0.8,206.9,M,-10.0,M,,*78,$GPGSA,A,3,10,16,18,23,26,27,28,29,31,32,,,1.5,0.8,1.3*31
2024/03/07,08:57:03,0.72,$GPGGA,115438.0,1352.121820,S,04004.572239,W,1,10,0.8,206.8,M,-10.0,M,,*75,$GPGSA,A,3,10,16,18,23,26,27,28,29,31,32,,,1.5,0.8,1.3*31
2024/03/07,08:57:04,0.73,$GPGGA,115439.0,1352.119817,S,04004.570720,W,1,10,0.8,206.7,M,-10.0,M,,*7B,$GPGSA,A,3,10,16,18,23,26,27,28,29,31,32,,,1.5,0.8,1.3*31
2024/03/07,08:57:05,0.70,$GPGGA,115440.0,1352.117874,S,04004.569112,W,1,10,0.8,206.7,M,-10.0,M,,*71,$GPGSA,A,3,10,16,18,23,26,27,28,29,31,32,,,1.5,0.8,1.3*31
2024/03/07,08:57:06,0.71,$GPGGA,115441.0,1352.115839,S,04004.567427,W,1,11,0.8,207.2,M,-10.0,M,,*73,$GPGSA,A,3,08,10,16,18,23,26,27,28,29,31,32,,1.5,0.8,1.3*39
2024/03/07,08:57:07,0.71,$GPGGA,115442.0,1352.113945,S,04004.565832,W,1,11,0.8,207.5,M,-10.0,M,,*71,$GPGSA,A,3,08,10,16,18,23,26,27,28,29,31,32,,1.5,0.8,1.3*39
2024/03/07,08:57:08,0.70,$GPGGA,115443.0,1352.111961,S,04004.564258,W,1,11,0.8,207.6,M,-10.0,M,,*70,$GPGSA,A,3,08,10,16,18,23,26,27,28,29,31,32,,1.5,0.8,1.3*39
2024/03/07,08:57:09,0.72,$GPGGA,115444.0,1352.109882,S,04004.562670,W,1,11,0.8,207.7,M,-10.0,M,,*7B,$GPGSA,A,3,08,10,16,18,23,26,27,28,29,31,32,,1.5,0.8,1.3*39
2024/03/07,08:57:10,0.71,$GPGGA,115445.0,1352.107832,S,04004.561170,W,1,11,0.8,207.8,M,-10.0,M,,*74,$GPGSA,A,3,08,10,16,18,23,26,27,28,29,31,32,,1.5,0.8,1.3*39
2024/03/07,08:57:11,0.71,$GPGGA,115446.0,1352.105823,S,04004.559734,W,1,11,0.8,207.7,M,-10.0,M,,*77,$GPGSA,A,3,08,10,16,18,23,26,27,28,29,31,32,,1.5,0.8,1.3*39
2024/03/07,08:57:12,0.71,$GPGGA,115447.0,1352.103714,S,04004.558241,W,1,11,0.8,207.7,M,-10.0,M,,*7D,$GPGSA,A,3,08,10,16,18,23,26,27,28,29,31,32,,1.5,0.8,1.3*39
2024/03/07,08:57:13,0.72,$GPGGA,115448.0,1352.101567,S,04004.556770,W,1,11,0.8,207.7,M,-10.0,M,,*7F,$GPGSA,A,3,08,10,16,18,23,26,27,28,29,31,32,,1.5,0.8,1.3*39
2024/03/07,08:57:14,0.71,$GPGGA,115449.0,1352.099394,S,04004.555259,W,1,11,0.8,207.8,M,-10.0,M,,*76,$GPGSA,A,3,08,10,16,18,23,26,27,28,29,31,32,,1.5,0.8,1.3*39
2024/03/07,08:57:15,0.69,$GPGGA,115450.0,1352.097455,S,04004.553907,W,1,11,0.8,207.9,M,-10.0,M,,*7D,$GPGSA,A,3,08,10,16,18,23,26,27,28,29,31,32,,1.5,0.8,1.3*39
2024/03/07,08:57:16,0.69,$GPGGA,115451.0,1352.095469,S,04004.552534,W,1,11,0.8,207.8,M,-10.0,M,,*7D,$GPGSA,A,3,08,10,16,18,23,26,27,28,29,31,32,,1.5,0.8,1.3*39
2024/03/07,08:57:17,0.68,$GPGGA,115452.0,1352.093469,S,04004.551202,W,1,11,0.8,207.9,M,-10.0,M,,*78,$GPGSA,A,3,08,10,16,18,23,26,27,28,29,31,32,,1.5,0.8,1.3*39
2024/03/07,08:57:18,0.70,$GPGGA,115453.0,1352.091701,S,04004.550054,W,1,11,0.8,208.0,M,-10.0,M,,*70,$GPGSA,A,3,08,10,16,18,23,26,27,28,29,31,32,,1.5,0.8,1.3*39
2024/03/07,08:57:19,0.71,$GPGGA,115454.0,1352.089986,S,04004.548937,W,1,11,0.8,208.2,M,-10.0,M,,*78,$GPGSA,A,3,08,10,16,18,23,26,27,28,29,31,32,,1.5,0.8,1.3*39
2024/03/07,08:57:20,0.73,$GPGGA,115455.0,1352.088474,S,04004.547861,W,1,11,0.8,208.5,M,-10.0,M,,*72,$GPGSA,A,3,08,10,16,18,23,26,27,28,29,31,32,,1.5,0.8,1.3*39
2024/03/07,08:57:21,0.72,$GPGGA,115456.0,1352.087256,S,04004.546941,W,1,11,0.8,208.7,M,-10.0,M,,*78,$GPGSA,A,3,08,10,16,18,23,26,27,28,29,31,32,,1.5,0.8,1.3*39
2024/03/07,08:57:22,0.74,$GPGGA,115457.0,1352.086288,S,04004.546105,W,1,11,0.8,208.8,M,-10.0,M,,*7C,$GPGSA,A,3,08,10,16,18,23,26,27,28,29,31,32,,1.5,0.8,1.3*39
2024/03/07,08:57:23,0.73,$GPGGA,115458.0,1352.085761,S,04004.545410,W,1,11,0.8,208.8,M,-10.0,M,,*70,$GPGSA,A,3,08,10,16,18,23,26,27,28,29,31,32,,1.5,0.8,1.3*39
2024/03/07,08:57:24,0.71,$GPGGA,115459.0,1352.085341,S,04004.544707,W,1,11,0.8,208.8,M,-10.0,M,,*73,$GPGSA,A,3,08,10,16,18,23,26,27,28,29,31,32,,1.5,0.8,1.3*39
2024/03/07,08:57:25,0.70,$GPGGA,115500.0,1352.085203,S,04004.543920,W,1,11,0.8,208.8,M,-10.0,M,,*75,$GPGSA,A,3,08,10,16,18,23,26,27,28,29,31,32,,1.5,0.8,1.3*39
2024/03/07,08:57:26,0.71,$GPGGA,115501.0,1352.085209,S,04004.543162,W,1,11,0.8,208.1,M,-10.0,M,,*79,$GPGSA,A,3,08,10,16,18,23,26,27,28,29,31,32,,1.5,0.8,1.3*39
2024/03/07,08:57:27,0.70,$GPGGA,115502.0,1352.085357,S,04004.542303,W,1,11,0.8,207.8,M,-10.0,M,,*72,$GPGSA,A,3,08,10,16,18,23,26,27,28,29,31,32,,1.5,0.8,1.3*39
2024/03/07,08:57:28,0.68,$GPGGA,115503.0,1352.085760,S,04004.541274,W,1,11,0.8,207.7,M,-10.0,M,,*7E,$GPGSA,A,3,08,10,16,18,23,26,27,28,29,31,32,,1.5,0.8,1.3*39
2024/03/07,08:57:29,0.70,$GPGGA,115504.0,1352.086176,S,04004.540026,W,1,11,0.8,207.6,M,-10.0,M,,*7E,$GPGSA,A,3,08,10,16,18,23,26,27,28,29,31,32,,1.6,0.8,1.4*3D
2024/03/07,08:57:30,0.72,$GPGGA,115505.0,1352.086810,S,04004.538387,W,1,11,0.8,207.6,M,-10.0,M,,*71,$GPGSA,A,3,08,10,16,18,23,26,27,28,29,31,32,,1.6,0.8,1.4*3D
2024/03/07,08:57:31,0.70,$GPGGA,115506.0,1352.087486,S,04004.536615,W,1,11,0.8,207.3,M,-10.0,M,,*75,$GPGSA,A,3,08,10,16,18,23,26,27,28,29,31,32,,1.6,0.8,1.4*3D
2024/03/07,08:57:32,0.67,$GPGGA,115507.0,1352.088315,S,04004.534390,W,1,11,0.8,206.8,M,-10.0,M,,*76,$GPGSA,A,3,08,10,16,18,23,26,27,28,29,31,32,,1.6,0.8,1.4*3D
2024/03/07,08:57:33,0.70,$GPGGA,115508.0,1352.089265,S,04004.532160,W,1,11,0.8,206.0,M,-10.0,M,,*7D,$GPGSA,A,3,08,10,16,18,23,26,27,28,29,31,32,,1.6,0.8,1.4*3D
2024/03/07,08:57:34,0.70,$GPGGA,115509.0,1352.090275,S,04004.529962,W,1,11,0.8,205.5,M,-10.0,M,,*73,$GPGSA,A,3,08,10,16,18,23,26,27,28,29,31,32,,1.6,0.8,1.4*3D
2024/03/07,08:57:35,0.73,$GPGGA,115510.0,1352.091177,S,04004.527791,W,1,10,0.8,204.9,M,-10.0,M,,*7B,$GPGSA,A,3,08,10,16,18,23,26,27,28,31,32,,,1.5,0.8,1.3*32
2024/03/07,08:57:36,0.71,$GPGGA,115511.0,1352.091951,S,04004.525779,W,1,11,0.8,204.7,M,-10.0,M,,*7D,$GPGSA,A,3,08,10,16,18,23,26,27,28,29,31,32,,1.5,0.8,1.3*39
2024/03/07,08:57:37,0.72,$GPGGA,115512.0,1352.092370,S,04004.524085,W,1,11,0.8,204.9,M,-10.0,M,,*7F,$GPGSA,A,3,08,10,16,18,23,26,27,28,29,31,32,,1.5,0.8,1.3*39
2024/03/07,08:57:38,0.71,$GPGGA,115513.0,1352.092324,S,04004.522767,W,1,11,0.8,205.0,M,-10.0,M,,*7A,$GPGSA,A,3,08,10,16,18,23,26,27,28,29,31,32,,1.5,0.8,1.3*39
2024/03/07,08:57:39,0.74,$GPGGA,115514.0,1352.091991,S,04004.521718,W,1,11,0.8,205.2,M,-10.0,M,,*73,$GPGSA,A,3,08,10,16,18,23,26,27,28,29,31,32,,1.5,0.8,1.3*39
2024/03/07,08:57:40,0.72,$GPGGA,115515.0,1352.091140,S,04004.521200,W,1,11,0.8,205.2,M,-10.0,M,,*7A,$GPGSA,A,3,08,10,16,18,23,26,27,28,29,31,32,,1.5,0.8,1.3*39
2024/03/07,08:57:41,0.72,$GPGGA,115516.0,1352.089716,S,04004.521268,W,1,11,0.8,205.5,M,-10.0,M,,*7C,$GPGSA,A,3,08,10,16,18,23,26,27,28,29,31,32,,1.5,0.8,1.3*39
2024/03/07,08:57:42,0.73,$GPGGA,115517.0,1352.088169,S,04004.521655,W,1,11,0.8,205.5,M,-10.0,M,,*78,$GPGSA,A,3,08,10,16,18,23,26,27,28,29,31,32,,1.5,0.8,1.3*39
2024/03/07,08:57:43,0.72,$GPGGA,115518.0,1352.086445,S,04004.522605,W,1,11,0.8,205.4,M,-10.0,M,,*75,$GPGSA,A,3,08,10,16,18,23,26,27,28,29,31,32,,1.6,0.8,1.4*3D
2024/03/07,08:57:44,0.71,$GPGGA,115519.0,1352.084488,S,04004.524212,W,1,11,0.8,205.4,M,-10.0,M,,*73,$GPGSA,A,3,08,10,16,18,23,26,27,28,29,31,32,,1.6,0.8,1.4*3D
2024/03/07,08:57:45,0.74,$GPGGA,115520.0,1352.080543,S,04004.529412,W,1,11,0.8,205.4,M,-10.0,M,,*70,$GPGSA,A,3,08,10,16,18,23,26,27,28,29,31,32,,1.6,0.8,1.4*3D
2024/03/07,08:57:46,0.73,$GPGGA,115521.0,1352.078632,S,04004.532607,W,1,10,0.8,205.2,M,-10.0,M,,*78,$GPGSA,A,3,08,10,16,18,23,26,27,28,31,32,,,1.6,0.8,1.4*36
2024/03/07,08:57:47,0.73,$GPGGA,115522.0,1352.076870,S,04004.535711,W,1,10,0.8,205.3,M,-10.0,M,,*7D,$GPGSA,A,3,08,10,16,18,23,26,27,28,31,32,,,1.6,0.8,1.4*36
2024/03/07,08:57:48,0.74,$GPGGA,115523.0,1352.074962,S,04004.539181,W,1,10,0.8,205.1,M,-10.0,M,,*7D,$GPGSA,A,3,08,10,16,18,23,26,27,28,31,32,,,1.6,0.8,1.4*36
2024/03/07,08:57:49,0.75,$GPGGA,115524.0,1352.073029,S,04004.542681,W,1,10,0.8,204.6,M,-10.0,M,,*76,$GPGSA,A,3,08,10,16,18,23,26,27,28,31,32,,,1.5,0.8,1.3*32
2024/03/07,08:57:50,0.74,$GPGGA,115525.0,1352.071123,S,04004.546257,W,1,11,0.8,204.7,M,-10.0,M,,*75,$GPGSA,A,3,08,10,16,18,23,26,27,28,29,31,32,,1.5,0.8,1.3*39
2024/03/07,08:57:51,0.78,$GPGGA,115526.0,1352.069137,S,04004.549558,W,1,11,0.8,204.4,M,-10.0,M,,*7E,$GPGSA,A,3,08,10,16,18,23,26,27,28,29,31,32,,1.6,0.8,1.4*3D
2024/03/07,08:57:52,0.77,$GPGGA,115527.0,1352.067179,S,04004.553011,W,1,11,0.8,204.4,M,-10.0,M,,*78,$GPGSA,A,3,08,10,16,18,23,26,27,28,29,31,32,,1.5,0.8,1.3*39
2024/03/07,08:57:53,0.76,$GPGGA,115528.0,1352.065249,S,04004.556300,W,1,11,0.8,204.3,M,-10.0,M,,*74,$GPGSA,A,3,08,10,16,18,23,26,27,28,29,31,32,,1.5,0.8,1.3*39
2024/03/07,08:57:54,0.76,$GPGGA,115529.0,1352.063378,S,04004.559426,W,1,11,0.8,204.4,M,-10.0,M,,*7B,$GPGSA,A,3,08,10,16,18,23,26,27,28,29,31,32,,1.5,0.8,1.3*39
2024/03/07,08:57:55,0.76,$GPGGA,115530.0,1352.061608,S,04004.562387,W,1,11,0.8,204.3,M,-10.0,M,,*70,$GPGSA,A,3,08,10,16,18,23,26,27,28,29,31,32,,1.5,0.8,1.3*39
2024/03/07,08:57:56,0.72,$GPGGA,115531.0,1352.060064,S,04004.564634,W,1,11,0.8,204.0,M,-10.0,M,,*74,$GPGSA,A,3,08,10,16,18,23,26,27,28,29,31,32,,1.5,0.8,1.3*39
2024/03/07,08:57:57,0.72,$GPGGA,115532.0,1352.058661,S,04004.566290,W,1,11,0.8,204.0,M,-10.0,M,,*77,$GPGSA,A,3,08,10,16,18,23,26,27,28,29,31,32,,1.5,0.8,1.3*39
2024/03/07,08:57:58,0.74,$GPGGA,115533.0,1352.057437,S,04004.567827,W,1,11,0.8,204.3,M,-10.0,M,,*7C,$GPGSA,A,3,08,10,16,18,23,26,27,28,29,31,32,,1.5,0.8,1.3*39
2024/03/07,08:57:59,0.74,$GPGGA,115534.0,1352.056162,S,04004.569114,W,1,11,0.8,204.4,M,-10.0,M,,*7F,$GPGSA,A,3,08,10,16,18,23,26,27,28,29,31,32,,1.5,0.8,1.3*39
2024/03/07,08:58:00,0.73,$GPGGA,115535.0,1352.054746,S,04004.570674,W,1,11,0.8,204.4,M,-10.0,M,,*75,$GPGSA,A,3,08,10,16,18,23,26,27,28,29,31,32,,1.5,0.8,1.3*39
2024/03/07,08:58:01,0.72,$GPGGA,115536.0,1352.052958,S,04004.572364,W,1,11,0.8,204.4,M,-10.0,M,,*77,$GPGSA,A,3,08,10,16,18,23,26,27,28,29,31,32,,1.5,0.8,1.3*39
2024/03/07,08:58:02,0.74,$GPGGA,115537.0,1352.050750,S,04004.573890,W,1,11,0.8,204.2,M,-10.0,M,,*75,$GPGSA,A,3,08,10,16,18,23,26,27,28,29,31,32,,1.5,0.8,1.3*39
2024/03/07,08:58:03,0.75,$GPGGA,115538.0,1352.048191,S,04004.575245,W,1,11,0.8,204.2,M,-10.0,M,,*7C,$GPGSA,A,3,08,10,16,18,23,26,27,28,29,31,32,,1.5,0.8,1.3*39
2024/03/07,08:58:04,0.76,$GPGGA,115539.0,1352.045683,S,04004.576584,W,1,11,0.8,204.1,M,-10.0,M,,*7E,$GPGSA,A,3,08,10,16,18,23,26,27,28,29,31,32,,1.5,0.8,1.3*39
2024/03/07,08:58:05,0.75,$GPGGA,115540.0,1352.043105,S,04004.577985,W,1,11,0.8,204.0,M,-10.0,M,,*72,$GPGSA,A,3,08,10,16,18,23,26,27,28,29,31,32,,1.5,0.8,1.3*39
2024/03/07,08:58:06,0.72,$GPGGA,115541.0,1352.040669,S,04004.579389,W,1,11,0.8,203.9,M,-10.0,M,,*7B,$GPGSA,A,3,08,10,16,18,23,26,27,28,29,31,32,,1.5,0.8,1.3*39
2024/03/07,08:58:07,0.74,$GPGGA,115542.0,1352.038223,S,04004.580579,W,1,11,0.8,203.8,M,-10.0,M,,*73,$GPGSA,A,3,08,10,16,18,23,26,27,28,29,31,32,,1.5,0.8,1.3*39
2024/03/07,08:58:08,0.72,$GPGGA,115543.0,1352.036182,S,04004.581679,W,1,11,0.8,203.7,M,-10.0,M,,*79,$GPGSA,A,3,08,10,16,18,23,26,27,28,29,31,32,,1.5,0.8,1.3*39
2024/03/07,08:58:09,0.73,$GPGGA,115544.0,1352.034217,S,04004.582729,W,1,11,0.8,203.7,M,-10.0,M,,*74,$GPGSA,A,3,08,10,16,18,23,26,27,28,29,31,32,,1.5,0.8,1.3*39
2024/03/07,08:58:10,0.72,$GPGGA,115545.0,1352.032965,S,04004.583335,W,1,11,0.8,203.7,M,-10.0,M,,*75,$GPGSA,A,3,08,10,16,18,23,26,27,28,29,31,32,,1.5,0.8,1.3*39
2024/03/07,08:58:11,0.70,$GPGGA,115546.0,1352.031951,S,04004.583871,W,1,11,0.8,203.8,M,-10.0,M,,*76,$GPGSA,A,3,08,10,16,18,23,26,27,28,29,31,32,,1.5,0.8,1.3*39
2024/03/07,08:58:12,0.72,$GPGGA,115547.0,1352.030790,S,04004.584480,W,1,11,0.8,204.0,M,-10.0,M,,*7F,$GPGSA,A,3,08,10,16,18,23,26,27,28,29,31,32,,1.5,0.8,1.3*39
2024/03/07,08:58:13,0.72,$GPGGA,115548.0,1352.029243,S,04004.585040,W,1,11,0.8,204.1,M,-10.0,M,,*7B,$GPGSA,A,3,08,10,16,18,23,26,27,28,29,31,32,,1.5,0.8,1.3*39
2024/03/07,08:58:14,0.73,$GPGGA,115549.0,1352.027314,S,04004.586118,W,1,11,0.8,204.0,M,-10.0,M,,*79,$GPGSA,A,3,08,10,16,18,23,26,27,28,29,31,32,,1.5,0.8,1.3*39
2024/03/07,08:58:15,0.72,$GPGGA,115550.0,1352.024770,S,04004.587265,W,1,11,0.8,204.4,M,-10.0,M,,*78,$GPGSA,A,3,08,10,16,18,23,26,27,28,29,31,32,,1.5,0.8,1.3*39
2024/03/07,08:58:16,0.73,$GPGGA,115551.0,1352.022349,S,04004.588410,W,1,11,0.8,204.3,M,-10.0,M,,*7D,$GPGSA,A,3,08,10,16,18,23,26,27,28,29,31,32,,1.5,0.8,1.3*39
2024/03/07,08:58:17,0.74,$GPGGA,115552.0,1352.019795,S,04004.589745,W,1,11,0.8,204.4,M,-10.0,M,,*76,$GPGSA,A,3,08,10,16,18,23,26,27,28,29,31,32,,1.5,0.8,1.3*39
2024/03/07,08:58:18,0.71,$GPGGA,115553.0,1352.016972,S,04004.591145,W,1,11,0.8,204.6,M,-10.0,M,,*72,$GPGSA,A,3,08,10,16,18,23,26,27,28,29,31,32,,1.5,0.8,1.3*39
2024/03/07,08:58:19,0.72,$GPGGA,115554.0,1352.013970,S,04004.592411,W,1,11,0.8,204.4,M,-10.0,M,,*77,$GPGSA,A,3,08,10,16,18,23,26,27,28,29,31,32,,1.5,0.8,1.3*39
2024/03/07,08:58:20,0.73,$GPGGA,115555.0,1352.011078,S,04004.594067,W,1,11,0.8,204.4,M,-10.0,M,,*76,$GPGSA,A,3,08,10,16,18,23,26,27,28,29,31,32,,1.5,0.8,1.3*39
2024/03/07,08:58:21,0.72,$GPGGA,115556.0,1352.008185,S,04004.595613,W,1,11,0.8,204.7,M,-10.0,M,,*79,$GPGSA,A,3,08,10,16,18,23,26,27,28,29,31,32,,1.5,0.8,1.3*39
2024/03/07,08:58:22,0.75,$GPGGA,115557.0,1352.005379,S,04004.597227,W,1,11,0.8,204.5,M,-10.0,M,,*77,$GPGSA,A,3,08,10,16,18,23,26,27,28,29,31,32,,1.5,0.8,1.3*39
2024/03/07,08:58:23,0.73,$GPGGA,115558.0,1352.002682,S,04004.598597,W,1,11,0.8,204.5,M,-10.0,M,,*7D,$GPGSA,A,3,08,10,16,18,23,26,27,28,29,31,32,,1.5,0.8,1.3*39
2024/03/07,08:58:24,0.76,$GPGGA,115559.0,1352.000076,S,04004.599949,W,1,11,0.8,204.2,M,-10.0,M,,*7A,$GPGSA,A,3,08,10,16,18,23,26,27,28,29,31,32,,1.5,0.8,1.3*39
2024/03/07,08:58:25,0.74,$GPGGA,115600.0,1351.997467,S,04004.601011,W,1,11,0.8,204.1,M,-10.0,M,,*70,$GPGSA,A,3,08,10,16,18,23,26,27,28,29,31,32,,1.5,0.8,1.3*39
2024/03/07,08:58:26,0.70,$GPGGA,115601.0,1351.995116,S,04004.602321,W,1,11,0.8,203.9,M,-10.0,M,,*7C,$GPGSA,A,3,08,10,16,18,23,26,27,28,29,31,32,,1.5,0.8,1.3*39
2024/03/07,08:58:27,0.71,$GPGGA,115602.0,1351.992878,S,04004.603413,W,1,11,0.8,203.9,M,-10.0,M,,*7E,$GPGSA,A,3,08,10,16,18,23,26,27,28,29,31,32,,1.5,0.8,1.3*39
2024/03/07,08:58:28,0.75,$GPGGA,115603.0,1351.990490,S,04004.604528,W,1,11,0.8,203.9,M,-10.0,M,,*79,$GPGSA,A,3,08,10,16,18,23,26,27,28,29,31,32,,1.5,0.8,1.3*39
2024/03/07,08:58:29,0.74,$GPGGA,115604.0,1351.987797,S,04004.605676,W,1,11,0.8,203.4,M,-10.0,M,,*78,$GPGSA,A,3,08,10,16,18,23,26,27,28,29,31,32,,1.5,0.8,1.3*39
2024/03/07,08:58:30,0.73,$GPGGA,115605.0,1351.985170,S,04004.607014,W,1,11,0.8,203.2,M,-10.0,M,,*72,$GPGSA,A,3,08,10,16,18,23,26,27,28,29,31,32,,1.5,0.8,1.3*39
2024/03/07,08:58:31,0.74,$GPGGA,115606.0,1351.982544,S,04004.608266,W,1,11,0.8,203.2,M,-10.0,M,,*7D,$GPGSA,A,3,08,10,16,18,23,26,27,28,29,31,32,,1.5,0.8,1.3*39
2024/03/07,08:58:32,0.72,$GPGGA,115607.0,1351.979661,S,04004.609667,W,1,11,0.8,202.8,M,-10.0,M,,*73,$GPGSA,A,3,08,10,16,18,23,26,27,28,29,31,32,,1.5,0.8,1.3*39
2024/03/07,08:58:33,0.75,$GPGGA,115608.0,1351.976666,S,04004.611165,W,1,11,0.8,202.6,M,-10.0,M,,*76,$GPGSA,A,3,08,10,16,18,23,26,27,28,29,31,32,,1.5,0.8,1.3*39
2024/03/07,08:58:34,0.82,$GPGGA,115609.0,1351.973121,S,04004.612567,W,1,11,0.8,202.4,M,-10.0,M,,*71,$GPGSA,A,3,08,10,16,18,23,26,27,28,29,31,32,,1.5,0.8,1.3*39
2024/03/07,08:58:35,0.88,$GPGGA,115610.0,1351.969990,S,04004.614310,W,1,11,0.8,202.3,M,-10.0,M,,*77,$GPGSA,A,3,08,10,16,18,23,26,27,28,29,31,32,,1.5,0.8,1.3*39
2024/03/07,08:58:36,0.92,$GPGGA,115611.0,1351.966811,S,04004.616232,W,1,11,0.8,202.2,M,-10.0,M,,*73,$GPGSA,A,3,08,10,16,18,23,26,27,28,29,31,32,,1.5,0.8,1.3*39
2024/03/07,08:58:37,0.78,$GPGGA,115612.0,1351.963463,S,04004.618035,W,1,11,0.8,202.1,M,-10.0,M,,*74,$GPGSA,A,3,08,10,16,18,23,26,27,28,29,31,32,,1.5,0.8,1.3*39
2024/03/07,08:58:38,0.80,$GPGGA,115613.0,1351.960164,S,04004.619580,W,1,11,0.8,202.2,M,-10.0,M,,*7D,$GPGSA,A,3,08,10,16,18,23,26,27,28,29,31,32,,1.5,0.8,1.3*39
2024/03/07,08:58:39,0.77,$GPGGA,115614.0,1351.956957,S,04004.620813,W,1,11,0.8,202.0,M,-10.0,M,,*78,$GPGSA,A,3,08,10,16,18,23,26,27,28,29,31,32,,1.6,0.8,1.4*3D
2024/03/07,08:58:40,0.81,$GPGGA,115615.0,1351.953455,S,04004.622159,W,1,11,0.8,202.0,M,-10.0,M,,*76,$GPGSA,A,3,08,10,16,18,23,26,27,28,29,31,32,,1.5,0.8,1.3*39
2024/03/07,08:58:41,0.74,$GPGGA,115616.0,1351.949954,S,04004.623366,W,1,11,0.8,202.4,M,-10.0,M,,*79,$GPGSA,A,3,08,10,16,18,23,26,27,28,29,31,32,,1.5,0.8,1.3*39
2024/03/07,08:58:42,0.74,$GPGGA,115617.0,1351.946478,S,04004.624958,W,1,11,0.8,202.3,M,-10.0,M,,*73,$GPGSA,A,3,08,10,16,18,23,26,27,28,29,31,32,,1.5,0.8,1.3*39
2024/03/07,08:58:43,0.76,$GPGGA,115618.0,1351.943082,S,04004.626340,W,1,11,0.8,202.1,M,-10.0,M,,*7B,$GPGSA,A,3,08,10,16,18,23,26,27,28,29,31,32,,1.6,0.8,1.4*3D
2024/03/07,08:58:44,0.76,$GPGGA,115619.0,1351.939697,S,04004.628134,W,1,11,0.8,201.9,M,-10.0,M,,*71,$GPGSA,A,3,08,10,16,18,23,26,27,28,29,31,32,,1.6,0.8,1.4*3D
2024/03/07,08:58:45,0.74,$GPGGA,115620.0,1351.936091,S,04004.629793,W,1,11,0.8,201.8,M,-10.0,M,,*7F,$GPGSA,A,3,08,10,16,18,23,26,27,28,29,31,32,,1.6,0.8,1.4*3D
2024/03/07,08:58:46,0.77,$GPGGA,115621.0,1351.932668,S,04004.631155,W,1,11,0.8,201.9,M,-10.0,M,,*7E,$GPGSA,A,3,08,10,16,18,23,26,27,28,29,31,32,,1.6,0.8,1.4*3D
2024/03/07,08:58:47,0.76,$GPGGA,115622.0,1351.929273,S,04004.632525,W,1,11,0.8,201.8,M,-10.0,M,,*78,$GPGSA,A,3,08,10,16,18,23,26,27,28,29,31,32,,1.5,0.8,1.3*39
2024/03/07,08:58:48,0.72,$GPGGA,115623.0,1351.925825,S,04004.633825,W,1,11,0.8,202.1,M,-10.0,M,,*7A,$GPGSA,A,3,08,10,16,18,23,26,27,28,29,31,32,,1.5,0.8,1.3*39
2024/03/07,08:58:49,0.74,$GPGGA,115624.0,1351.922687,S,04004.635043,W,1,11,0.8,202.1,M,-10.0,M,,*72,$GPGSA,A,3,08,10,16,18,23,26,27,28,29,31,32,,1.5,0.8,1.3*39
2024/03/07,08:58:50,0.78,$GPGGA,115625.0,1351.919164,S,04004.635735,W,1,11,0.8,201.5,M,-10.0,M,,*70,$GPGSA,A,3,08,10,16,18,23,26,27,28,29,31,32,,1.5,0.8,1.3*39
2024/03/07,08:58:51,0.81,$GPGGA,115626.0,1351.916188,S,04004.636313,W,1,11,0.8,201.3,M,-10.0,M,,*7B,$GPGSA,A,3,08,10,16,18,23,26,27,28,29,31,32,,1.5,0.8,1.3*39
2024/03/07,08:58:52,0.79,$GPGGA,115627.0,1351.913268,S,04004.636609,W,1,11,0.8,201.3,M,-10.0,M,,*7C,$GPGSA,A,3,08,10,16,18,23,26,27,28,29,31,32,,1.5,0.8,1.3*39
2024/03/07,08:58:53,0.78,$GPGGA,115628.0,1351.910623,S,04004.636899,W,1,11,0.8,201.1,M,-10.0,M,,*7E,$GPGSA,A,3,08,10,16,18,23,26,27,28,29,31,32,,1.5,0.8,1.3*39
2024/03/07,08:58:54,0.77,$GPGGA,115629.0,1351.908769,S,04004.637153,W,1,11,0.8,201.0,M,-10.0,M,,*76,$GPGSA,A,3,08,10,16,18,23,26,27,28,29,31,32,,1.5,0.8,1.3*39
2024/03/07,08:58:55,0.79,$GPGGA,115630.0,1351.907172,S,04004.637268,W,1,11,0.8,200.5,M,-10.0,M,,*72,$GPGSA,A,3,08,10,16,18,23,26,27,28,29,31,32,,1.5,0.8,1.3*39
2024/03/07,08:58:56,0.79,$GPGGA,115631.0,1351.906491,S,04004.637403,W,1,11,0.8,200.4,M,-10.0,M,,*70,$GPGSA,A,3,08,10,16,18,23,26,27,28,29,31,32,,1.5,0.8,1.3*39
2024/03/07,08:58:57,0.80,$GPGGA,115632.0,1351.905994,S,04004.637635,W,1,11,0.8,200.3,M,-10.0,M,,*78,$GPGSA,A,3,08,10,16,18,23,26,27,28,29,31,32,,1.5,0.8,1.3*39
2024/03/07,08:58:58,0.80,$GPGGA,115633.0,1351.906046,S,04004.637681,W,1,11,0.8,200.0,M,-10.0,M,,*70,$GPGSA,A,3,08,10,16,18,23,26,27,28,29,31,32,,1.6,0.8,1.4*3D
2024/03/07,08:58:59,0.80,$GPGGA,115634.0,1351.906455,S,04004.637871,W,1,11,0.8,199.9,M,-10.0,M,,*7A,$GPGSA,A,3,08,10,16,18,23,26,27,28,29,31,32,,1.6,0.8,1.4*3D
2024/03/07,08:59:00,0.79,$GPGGA,115635.0,1351.906678,S,04004.637967,W,1,11,0.8,199.9,M,-10.0,M,,*70,$GPGSA,A,3,08,10,16,18,23,26,27,28,29,31,32,,1.6,0.8,1.4*3D
2024/03/07,08:59:01,0.80,$GPGGA,115636.0,1351.906882,S,04004.638090,W,1,10,0.8,200.0,M,-10.0,M,,*7D,$GPGSA,A,3,08,10,16,18,23,26,27,28,31,32,,,1.6,0.8,1.4*36
2024/03/07,08:59:02,0.79,$GPGGA,115637.0,1351.907051,S,04004.638204,W,1,10,0.8,200.1,M,-10.0,M,,*75,$GPGSA,A,3,08,10,16,18,23,26,27,28,31,32,,,1.6,0.8,1.4*36
2024/03/07,08:59:03,0.80,$GPGGA,115638.0,1351.907198,S,04004.638317,W,1,10,0.8,200.1,M,-10.0,M,,*7D,$GPGSA,A,3,08,10,16,18,23,26,27,28,31,32,,,1.6,0.8,1.4*36
2024/03/07,08:59:04,0.77,$GPGGA,115639.0,1351.907293,S,04004.638446,W,1,09,0.8,200.1,M,-10.0,M,,*7F,$GPGSA,A,3,08,10,16,23,26,27,28,31,32,,,,1.6,0.8,1.4*3F
2024/03/07,08:59:05,0.79,$GPGGA,115640.0,1351.907422,S,04004.638583,W,1,09,0.8,200.1,M,-10.0,M,,*75,$GPGSA,A,3,08,10,16,23,26,27,28,31,32,,,,1.6,0.8,1.4*3F
2024/03/07,08:59:06,0.78,$GPGGA,115641.0,1351.907493,S,04004.638697,W,1,09,0.8,200.1,M,-10.0,M,,*78,$GPGSA,A,3,08,10,16,23,26,27,28,31,32,,,,1.6,0.8,1.4*3F
2024/03/07,08:59:07,0.77,$GPGGA,115642.0,1351.907540,S,04004.638781,W,1,09,0.8,200.2,M,-10.0,M,,*71,$GPGSA,A,3,08,10,16,23,26,27,28,31,32,,,,1.6,0.8,1.4*3F
2024/03/07,08:59:08,0.79,$GPGGA,115643.0,1351.907562,S,04004.638873,W,1,09,0.8,200.1,M,-10.0,M,,*71,$GPGSA,A,3,08,10,16,23,26,27,28,31,32,,,,1.6,0.8,1.4*3F
2024/03/07,08:59:09,0.78,$GPGGA,115644.0,1351.907583,S,04004.638887,W,1,09,0.8,200.1,M,-10.0,M,,*72,$GPGSA,A,3,08,10,16,23,26,27,28,31,32,,,,1.6,0.8,1.4*3F
2024/03/07,08:59:10,0.79,$GPGGA,115645.0,1351.907588,S,04004.638890,W,1,09,0.8,200.1,M,-10.0,M,,*7E,$GPGSA,A,3,08,10,16,23,26,27,28,31,32,,,,1.6,0.8,1.4*3F
2024/03/07,08:59:11,0.79,$GPGGA,115646.0,1351.907594,S,04004.638890,W,1,09,0.8,200.1,M,-10.0,M,,*70,$GPGSA,A,3,08,10,16,23,26,27,28,31,32,,,,1.6,0.8,1.4*3F
2024/03/07,08:59:12,0.79,$GPGGA,115647.0,1351.907598,S,04004.638891,W,1,09,0.8,200.1,M,-10.0,M,,*7C,$GPGSA,A,3,08,10,16,23,26,27,28,31,32,,,,1.6,0.8,1.4*3F
2024/03/07,08:59:13,0.79,$GPGGA,115648.0,1351.907598,S,04004.638891,W,1,09,0.8,200.1,M,-10.0,M,,*73,$GPGSA,A,3,08,10,16,23,26,27,28,31,32,,,,1.6,0.8,1.4*3F
2024/03/07,08:59:14,0.80,$GPGGA,115649.0,1351.907543,S,04004.638895,W,1,09,0.8,200.1,M,-10.0,M,,*70,$GPGSA,A,3,08,10,16,23,26,27,28,31,32,,,,1.6,0.8,1.4*3F
2024/03/07,08:59:15,0.80,$GPGGA,115650.0,1351.907026,S,04004.638965,W,1,10,0.8,199.9,M,-10.0,M,,*73,$GPGSA,A,3,08,10,16,18,23,26,27,28,31,32,,,1.6,0.8,1.4*36
2024/03/07,08:59:16,0.79,$GPGGA,115651.0,1351.906309,S,04004.638986,W,1,10,0.8,199.9,M,-10.0,M,,*70,$GPGSA,A,3,08,10,16,18,23,26,27,28,31,32,,,1.6,0.8,1.4*36
2024/03/07,08:59:17,0.86,$GPGGA,115652.0,1351.905545,S,04004.639112,W,1,10,0.8,199.7,M,-10.0,M,,*74,$GPGSA,A,3,08,10,16,18,23,26,27,28,31,32,,,1.5,0.8,1.3*32
2024/03/07,08:59:18,0.83,$GPGGA,115653.0,1351.904348,S,04004.639056,W,1,10,0.8,199.9,M,-10.0,M,,*70,$GPGSA,A,3,08,10,16,18,23,26,27,28,31,32,,,1.5,0.8,1.3*32
2024/03/07,08:59:19,0.79,$GPGGA,115654.0,1351.903139,S,04004.639060,W,1,10,0.8,199.8,M,-10.0,M,,*70,$GPGSA,A,3,08,10,16,18,23,26,27,28,31,32,,,1.6,0.8,1.4*36
2024/03/07,08:59:20,0.78,$GPGGA,115655.0,1351.901522,S,04004.639063,W,1,10,0.8,199.6,M,-10.0,M,,*70,$GPGSA,A,3,08,10,16,18,23,26,27,28,31,32,,,1.6,0.8,1.4*36
2024/03/07,08:59:21,0.78,$GPGGA,115656.0,1351.899672,S,04004.639045,W,1,10,0.8,199.3,M,-10.0,M,,*74,$GPGSA,A,3,08,10,16,18,23,26,27,28,31,32,,,1.5,0.8,1.3*32
2024/03/07,08:59:22,0.78,$GPGGA,115657.0,1351.897598,S,04004.638985,W,1,10,0.8,199.0,M,-10.0,M,,*7B,$GPGSA,A,3,08,10,16,18,23,26,27,28,31,32,,,1.5,0.8,1.3*32
2024/03/07,08:59:23,0.98,$GPGGA,115658.0,1351.895356,S,04004.638848,W,1,10,0.8,198.7,M,-10.0,M,,*74,$GPGSA,A,3,08,10,16,18,23,26,27,28,31,32,,,1.6,0.8,1.4*36
2024/03/07,08:59:24,0.97,$GPGGA,115659.0,1351.893038,S,04004.638775,W,1,10,0.8,198.5,M,-10.0,M,,*7B,$GPGSA,A,3,08,10,16,18,23,26,27,28,31,32,,,1.6,0.8,1.4*36
2024/03/07,08:59:25,0.89,$GPGGA,115700.0,1351.890646,S,04004.638628,W,1,10,0.8,198.4,M,-10.0,M,,*72,$GPGSA,A,3,08,10,16,18,23,26,27,28,31,32,,,1.6,0.8,1.4*36
2024/03/07,08:59:26,0.80,$GPGGA,115701.0,1351.888332,S,04004.638560,W,1,10,0.8,198.3,M,-10.0,M,,*74,$GPGSA,A,3,08,10,16,18,23,26,27,28,31,32,,,1.6,0.8,1.4*36
2024/03/07,08:59:27,0.81,$GPGGA,115702.0,1351.885753,S,04004.638764,W,1,11,0.8,198.4,M,-10.0,M,,*79,$GPGSA,A,3,08,10,16,18,23,26,27,28,29,31,32,,1.5,0.8,1.3*39
2024/03/07,08:59:28,0.81,$GPGGA,115703.0,1351.883393,S,04004.639393,W,1,11,0.8,198.4,M,-10.0,M,,*7B,$GPGSA,A,3,08,10,16,18,23,26,27,28,29,31,32,,1.5,0.8,1.3*39
2024/03/07,08:59:29,0.81,$GPGGA,115704.0,1351.881202,S,04004.640531,W,1,11,0.8,198.2,M,-10.0,M,,*71,$GPGSA,A,3,08,10,16,18,23,26,27,28,29,31,32,,1.5,0.8,1.3*39
2024/03/07,08:59:30,0.78,$GPGGA,115705.0,1351.879002,S,04004.642089,W,1,11,0.8,198.2,M,-10.0,M,,*71,$GPGSA,A,3,08,10,16,18,23,26,27,28,29,31,32,,1.5,0.8,1.3*39
2024/03/07,08:59:31,0.85,$GPGGA,115706.0,1351.876964,S,04004.645714,W,1,11,0.8,198.3,M,-10.0,M,,*71,$GPGSA,A,3,08,10,16,18,23,26,27,28,29,31,32,,1.5,0.8,1.3*39
2024/03/07,08:59:32,0.97,$GPGGA,115707.0,1351.875367,S,04004.648640,W,1,11,0.8,198.4,M,-10.0,M,,*70,$GPGSA,A,3,08,10,16,18,23,26,27,28,29,31,32,,1.5,0.8,1.3*39
2024/03/07,08:59:33,0.95,$GPGGA,115708.0,1351.873649,S,04004.651580,W,1,11,0.8,198.3,M,-10.0,M,,*70,$GPGSA,A,3,08,10,16,18,23,26,27,28,29,31,32,,1.5,0.8,1.3*39
2024/03/07,08:59:34,0.96,$GPGGA,115709.0,1351.871958,S,04004.654266,W,1,11,0.8,198.3,M,-10.0,M,,*76,$GPGSA,A,3,08,10,16,18,23,26,27,28,29,31,32,,1.5,0.8,1.3*39
2024/03/07,08:59:35,0.87,$GPGGA,115710.0,1351.870349,S,04004.657150,W,1,11,0.8,198.3,M,-10.0,M,,*70,$GPGSA,A,3,08,10,16,18,23,26,27,28,29,31,32,,1.5,0.8,1.3*39
2024/03/07,08:59:36,0.82,$GPGGA,115711.0,1351.868708,S,04004.659987,W,1,11,0.8,198.4,M,-10.0,M,,*72,$GPGSA,A,3,08,10,16,18,23,26,27,28,29,31,32,,1.5,0.8,1.3*39
2024/03/07,08:59:37,0.81,$GPGGA,115712.0,1351.867135,S,04004.662720,W,1,11,0.8,198.4,M,-10.0,M,,*7D,$GPGSA,A,3,08,10,16,18,23,26,27,28,29,31,32,,1.5,0.8,1.3*39
2024/03/07,08:59:38,0.81,$GPGGA,115713.0,1351.865366,S,04004.665809,W,1,11,0.8,198.5,M,-10.0,M,,*78,$GPGSA,A,3,08,10,16,18,23,26,27,28,29,31,32,,1.5,0.8,1.3*39
2024/03/07,08:59:39,0.89,$GPGGA,115714.0,1351.863514,S,04004.668454,W,1,11,0.8,199.2,M,-10.0,M,,*75,$GPGSA,A,3,08,10,16,18,23,26,27,28,29,31,32,,1.5,0.8,1.3*39
2024/03/07,08:59:40,0.96,$GPGGA,115715.0,1351.861743,S,04004.671761,W,1,11,0.8,199.4,M,-10.0,M,,*7D,$GPGSA,A,3,08,10,16,18,23,26,27,28,29,31,32,,1.6,0.8,1.4*3D
2024/03/07,08:59:41,0.87,$GPGGA,115716.0,1351.859836,S,04004.675022,W,1,11,0.8,199.4,M,-10.0,M,,*7C,$GPGSA,A,3,08,10,16,18,23,26,27,28,29,31,32,,1.6,0.8,1.4*3D
2024/03/07,08:59:42,0.83,$GPGGA,115717.0,1351.858266,S,04004.678024,W,1,11,0.8,199.3,M,-10.0,M,,*7F,$GPGSA,A,3,08,10,16,18,23,26,27,28,29,31,32,,1.6,0.8,1.4*3D
2024/03/07,08:59:43,0.84,$GPGGA,115718.0,1351.856328,S,04004.680910,W,1,11,0.8,199.4,M,-10.0,M,,*7B,$GPGSA,A,3,08,10,16,18,23,26,27,28,29,31,32,,1.6,0.8,1.4*3D
2024/03/07,08:59:44,0.83,$GPGGA,115719.0,1351.854651,S,04004.683984,W,1,11,0.8,199.4,M,-10.0,M,,*7D,$GPGSA,A,3,08,10,16,18,23,26,27,28,29,31,32,,1.6,0.8,1.4*3D
2024/03/07,08:59:45,0.78,$GPGGA,115720.0,1351.853348,S,04004.687104,W,1,11,0.8,199.4,M,-10.0,M,,*79,$GPGSA,A,3,08,10,16,18,23,26,27,28,29,31,32,,1.6,0.8,1.4*3D
2024/03/07,08:59:46,0.80,$GPGGA,115721.0,1351.851970,S,04004.690709,W,1,09,0.8,199.4,M,-10.0,M,,*7F,$GPGSA,A,3,10,16,18,23,26,27,28,31,32,,,,1.5,0.8,1.3*3A
2024/03/07,08:59:47,0.81,$GPGGA,115722.0,1351.850405,S,04004.693760,W,1,11,0.8,199.8,M,-10.0,M,,*7B,$GPGSA,A,3,08,10,16,18,23,26,27,28,29,31,32,,1.5,0.8,1.3*39
2024/03/07,08:59:48,0.93,$GPGGA,115723.0,1351.848835,S,04004.697120,W,1,11,0.8,199.9,M,-10.0,M,,*7B,$GPGSA,A,3,08,10,16,18,23,26,27,28,29,31,32,,1.5,0.8,1.3*39
2024/03/07,08:59:49,1.06,$GPGGA,115724.0,1351.847395,S,04004.700454,W,1,11,0.8,200.0,M,-10.0,M,,*71,$GPGSA,A,3,08,10,16,18,23,26,27,28,29,31,32,,1.5,0.8,1.3*39
2024/03/07,08:59:50,1.01,$GPGGA,115725.0,1351.845871,S,04004.703354,W,1,10,0.8,200.1,M,-10.0,M,,*77,$GPGSA,A,3,08,10,16,18,26,27,28,29,31,32,,,1.5,0.8,1.3*38
2024/03/07,08:59:51,0.88,$GPGGA,115726.0,1351.844655,S,04004.706722,W,1,11,0.8,200.7,M,-10.0,M,,*7A,$GPGSA,A,3,08,10,16,18,23,26,27,28,29,31,32,,1.5,0.8,1.3*39
2024/03/07,08:59:52,0.93,$GPGGA,115727.0,1351.843782,S,04004.709801,W,1,11,0.8,201.7,M,-10.0,M,,*77,$GPGSA,A,3,08,10,16,18,23,26,27,28,29,31,32,,1.5,0.8,1.3*39
2024/03/07,08:59:53,1.07,$GPGGA,115728.0,1351.842267,S,04004.712801,W,1,11,0.8,202.9,M,-10.0,M,,*70,$GPGSA,A,3,08,10,16,18,23,26,27,28,29,31,32,,1.5,0.8,1.3*39
2024/03/07,08:59:54,1.14,$GPGGA,115729.0,1351.840564,S,04004.715818,W,1,11,0.8,203.8,M,-10.0,M,,*78,$GPGSA,A,3,08,10,16,18,23,26,27,28,29,31,32,,1.5,0.8,1.3*39
2024/03/07,08:59:55,1.06,$GPGGA,115730.0,1351.838869,S,04004.718672,W,1,11,0.8,204.7,M,-10.0,M,,*78,$GPGSA,A,3,08,10,16,18,23,26,27,28,29,31,32,,1.5,0.8,1.3*39
2024/03/07,08:59:56,1.05,$GPGGA,115731.0,1351.836864,S,04004.721333,W,1,11,0.8,205.4,M,-10.0,M,,*72,$GPGSA,A,3,08,10,16,18,23,26,27,28,29,31,32,,1.6,0.8,1.4*3D
2024/03/07,08:59:57,0.98,$GPGGA,115732.0,1351.835246,S,04004.724190,W,1,11,0.8,205.7,M,-10.0,M,,*75,$GPGSA,A,3,08,10,16,18,23,26,27,28,29,31,32,,1.6,0.8,1.4*3D
2024/03/07,08:59:58,0.91,$GPGGA,115733.0,1351.833617,S,04004.726920,W,1,11,0.8,205.9,M,-10.0,M,,*7D,$GPGSA,A,3,08,10,16,18,23,26,27,28,29,31,32,,1.5,0.8,1.3*39
2024/03/07,08:59:59,0.94,$GPGGA,115734.0,1351.832611,S,04004.729628,W,1,11,0.8,205.7,M,-10.0,M,,*7B,$GPGSA,A,3,08,10,16,18,23,26,27,28,29,31,32,,1.5,0.8,1.3*39
2024/03/07,09:00:00,0.99,$GPGGA,115735.0,1351.831411,S,04004.732364,W,1,11,0.8,205.9,M,-10.0,M,,*72,$GPGSA,A,3,08,10,16,18,23,26,27,28,29,31,32,,1.5,0.8,1.3*39
2024/03/07,09:00:01,1.01,$GPGGA,115736.0,1351.830105,S,04004.735062,W,1,11,0.8,205.7,M,-10.0,M,,*7C,$GPGSA,A,3,08,10,16,18,23,26,27,28,29,31,32,,1.6,0.8,1.4*3D
2024/03/07,09:00:02,0.96,$GPGGA,115737.0,1351.828502,S,04004.737687,W,1,11,0.8,205.7,M,-10.0,M,,*78,$GPGSA,A,3,08,10,16,18,23,26,27,28,29,31,32,,1.6,0.8,1.4*3D
2024/03/07,09:00:03,0.96,$GPGGA,115738.0,1351.826558,S,04004.740172,W,1,11,0.8,206.1,M,-10.0,M,,*7E,$GPGSA,A,3,08,10,16,18,23,26,27,28,29,31,32,,1.6,0.8,1.4*3D
2024/03/07,09:00:04,0.90,$GPGGA,115739.0,1351.825445,S,04004.742557,W,1,11,0.8,205.6,M,-10.0,M,,*74,$GPGSA,A,3,08,10,16,18,23,26,27,28,29,31,32,,1.6,0.8,1.4*3D
2024/03/07,09:00:05,0.88,$GPGGA,115740.0,1351.823861,S,04004.744923,W,1,11,0.8,206.1,M,-10.0,M,,*7B,$GPGSA,A,3,08,10,16,18,23,26,27,28,29,31,32,,1.6,0.8,1.4*3D
2024/03/07,09:00:06,0.92,$GPGGA,115741.0,1351.822963,S,04004.747184,W,1,10,0.8,206.0,M,-10.0,M,,*7E,$GPGSA,A,3,08,10,16,18,23,26,27,28,31,32,,,1.6,0.8,1.4*36
2024/03/07,09:00:07,1.07,$GPGGA,115742.0,1351.822116,S,04004.749556,W,1,10,0.8,206.0,M,-10.0,M,,*72,$GPGSA,A,3,08,10,16,18,23,26,27,28,31,32,,,1.5,0.8,1.3*32
2024/03/07,09:00:08,1.03,$GPGGA,115743.0,1351.821155,S,04004.751786,W,1,10,0.8,206.3,M,-10.0,M,,*72,$GPGSA,A,3,08,10,16,18,23,26,27,28,31,32,,,1.6,0.8,1.4*36
2024/03/07,09:00:09,1.02,$GPGGA,115744.0,1351.820116,S,04004.753980,W,1,10,0.8,205.9,M,-10.0,M,,*70,$GPGSA,A,3,08,10,16,18,23,26,27,28,31,32,,,1.5,0.8,1.3*32
2024/03/07,09:00:10,1.07,$GPGGA,115745.0,1351.819431,S,04004.756166,W,1,11,0.8,205.5,M,-10.0,M,,*73,$GPGSA,A,3,08,10,16,18,23,26,27,28,29,31,32,,1.5,0.8,1.3*39
2024/03/07,09:00:11,1.10,$GPGGA,115746.0,1351.818879,S,04004.758335,W,1,11,0.8,205.5,M,-10.0,M,,*7B,$GPGSA,A,3,08,10,16,18,23,26,27,28,29,31,32,,1.5,0.8,1.3*39
2024/03/07,09:00:12,1.05,$GPGGA,115747.0,1351.818150,S,04004.760183,W,1,11,0.8,205.4,M,-10.0,M,,*7D,$GPGSA,A,3,08,10,16,18,23,26,27,28,29,31,32,,1.6,0.8,1.4*3D
2024/03/07,09:00:13,1.05,$GPGGA,115748.0,1351.817455,S,04004.762111,W,1,10,0.8,205.1,M,-10.0,M,,*70,$GPGSA,A,3,08,10,16,18,23,27,28,29,31,32,,,1.6,0.8,1.4*39
2024/03/07,09:00:14,1.10,$GPGGA,115749.0,1351.816931,S,04004.763840,W,1,10,0.8,205.5,M,-10.0,M,,*77,$GPGSA,A,3,08,10,16,18,23,27,28,29,31,32,,,1.6,0.8,1.4*39
2024/03/07,09:00:15,1.13,$GPGGA,115750.0,1351.816182,S,04004.765764,W,1,09,0.9,205.5,M,-10.0,M,,*79,$GPGSA,A,3,08,10,16,18,23,27,28,29,32,,,,1.7,0.9,1.4*3B
2024/03/07,09:00:16,1.14,$GPGGA,115751.0,1351.815532,S,04004.767729,W,1,09,0.9,205.5,M,-10.0,M,,*7F,$GPGSA,A,3,08,10,16,18,23,27,28,29,32,,,,1.7,0.9,1.4*3B
2024/03/07,09:00:17,1.08,$GPGGA,115752.0,1351.814946,S,04004.769651,W,1,08,0.9,205.2,M,-10.0,M,,*74,$GPGSA,A,3,08,10,16,18,23,27,29,32,,,,,1.7,0.9,1.4*31
2024/03/07,09:00:18,1.15,$GPGGA,115753.0,1351.814245,S,04004.771785,W,1,07,0.9,204.7,M,-10.0,M,,*77,$GPGSA,A,3,08,10,16,18,23,27,32,,,,,,1.7,0.9,1.4*3A
2024/03/07,09:00:19,1.18,$GPGGA,115754.0,1351.813564,S,04004.773992,W,1,07,0.9,204.4,M,-10.0,M,,*7A,$GPGSA,A,3,08,10,16,18,23,27,32,,,,,,1.7,0.9,1.4*3A
2024/03/07,09:00:20,1.09,$GPGGA,115755.0,1351.812858,S,04004.776285,W,1,07,0.9,204.2,M,-10.0,M,,*76,$GPGSA,A,3,08,10,16,18,23,27,32,,,,,,1.6,0.9,1.4*3B
2024/03/07,09:00:21,1.27,$GPGGA,115756.0,1351.812105,S,04004.778802,W,1,07,0.8,204.5,M,-10.0,M,,*79,$GPGSA,A,3,08,10,16,18,23,27,32,,,,,,1.5,0.8,1.3*3E
2024/03/07,09:00:22,1.18,$GPGGA,115757.0,1351.811351,S,04004.781212,W,1,09,0.8,204.8,M,-10.0,M,,*76,$GPGSA,A,3,08,10,16,18,23,26,27,31,32,,,,1.6,0.8,1.4*3C
2024/03/07,09:00:23,1.12,$GPGGA,115758.0,1351.810424,S,04004.783781,W,1,10,0.8,204.6,M,-10.0,M,,*76,$GPGSA,A,3,08,10,16,18,23,26,27,28,31,32,,,1.5,0.8,1.3*32
2024/03/07,09:00:24,1.02,$GPGGA,115759.0,1351.808888,S,04004.787139,W,1,10,0.8,204.5,M,-10.0,M,,*76,$GPGSA,A,3,08,10,16,18,23,26,27,28,31,32,,,1.6,0.8,1.4*36
2024/03/07,09:00:25,0.93,$GPGGA,115800.0,1351.807903,S,04004.789705,W,1,11,0.8,204.4,M,-10.0,M,,*7F,$GPGSA,A,3,08,10,16,18,23,26,27,28,29,31,32,,1.5,0.8,1.3*39
2024/03/07,09:00:26,0.89,$GPGGA,115801.0,1351.807165,S,04004.792122,W,1,11,0.8,204.3,M,-10.0,M,,*78,$GPGSA,A,3,08,10,16,18,23,26,27,28,29,31,32,,1.5,0.8,1.3*39
2024/03/07,09:00:27,0.86,$GPGGA,115802.0,1351.806515,S,04004.794389,W,1,11,0.8,204.5,M,-10.0,M,,*7A,$GPGSA,A,3,08,10,16,18,23,26,27,28,29,31,32,,1.5,0.8,1.3*39
2024/03/07,09:00:28,0.84,$GPGGA,115803.0,1351.806186,S,04004.796636,W,1,11,0.8,205.3,M,-10.0,M,,*71,$GPGSA,A,3,08,10,16,18,23,26,27,28,29,31,32,,1.5,0.8,1.3*39
2024/03/07,09:00:29,0.80,$GPGGA,115804.0,1351.805614,S,04004.798697,W,1,11,0.8,205.2,M,-10.0,M,,*7D,$GPGSA,A,3,08,10,16,18,23,26,27,28,29,31,32,,1.5,0.8,1.3*39
2024/03/07,09:00:30,0.82,$GPGGA,115805.0,1351.805307,S,04004.800221,W,1,11,0.8,205.4,M,-10.0,M,,*7A,$GPGSA,A,3,08,10,16,18,23,26,27,28,29,31,32,,1.5,0.8,1.3*39
2024/03/07,09:00:31,0.82,$GPGGA,115806.0,1351.805157,S,04004.801575,W,1,11,0.8,205.4,M,-10.0,M,,*79,$GPGSA,A,3,08,10,16,18,23,26,27,28,29,31,32,,1.6,0.8,1.4*3D
2024/03/07,09:00:32,0.84,$GPGGA,115807.0,1351.804442,S,04004.802667,W,1,11,0.8,205.2,M,-10.0,M,,*7D,$GPGSA,A,3,08,10,16,18,23,26,27,28,29,31,32,,1.6,0.8,1.4*3D
2024/03/07,09:00:33,0.89,$GPGGA,115808.0,1351.803715,S,04004.803891,W,1,11,0.8,204.8,M,-10.0,M,,*79,$GPGSA,A,3,08,10,16,18,23,26,27,28,29,31,32,,1.6,0.8,1.4*3D
2024/03/07,09:00:34,0.86,$GPGGA,115809.0,1351.803389,S,04004.805057,W,1,11,0.8,204.7,M,-10.0,M,,*72,$GPGSA,A,3,08,10,16,18,23,26,27,28,29,31,32,,1.6,0.8,1.4*3D
