#BM MDM=OK*
#BM MSK=------------*
#BM TSS=OFF 16:00 ( 2q)  each 24h*
#BM TSM=NET 13:10 ( 1q)  each 01h*
#BM MES=0.33; ; V/m*
#BM IDN=490ZY30411;Nsts,AMB-8059-00; 2.29 11/22;490ZY30411;24.10.23;NET 13:10 ( 1q)  each 01h;OFF 16:00 ( 2q)  each 24h;------------;*
#BM MES=0.33; ; V/m*
#BM MDM=OK*
#BM SWI=OK*
#BM MDM=0*
#BM PRB=EP-1B-08:24.10.23; V/m:100.00:200.00:0.18:S*
Instrument time updated 10.47.12 - 26/03/24#BM PRB=EP-1B-08:24.10.23; V/m:100.00:200.00:0.18:S*
#BM EEM=OK*
Erasing Mobile Flash
#BM ERM=OK   40*
#BM *;
MES=0.33; ; ; ; V/m; 3.65V; ;530.00;1.00;77.00;28.40;65.19 -->26/03/24 10:48:04*;
MES=0.33; ; ; ; V/m; 3.65V; ;0.00;-4.00;5.00;28.40;65.19 -->26/03/24 10:48:05*;
MES=0.32; ; ; ; V/m; 3.65V; ;4.00;2.00;-3.00;28.40;65.19 -->26/03/24 10:48:05*;
MES=0.32; ; ; ; V/m; 3.65V; ;0.00;-1.00;3.00;28.40;65.19 -->26/03/24 10:48:05*;
MES=0.33; ; ; ; V/m; 3.65V; ;1.00;1.00;-7.00;28.40;65.19 -->26/03/24 10:48:05*;
MES=0.33; ; ; ; V/m; 3.65V; ;-7.00;2.00;2.00;28.40;65.19 -->26/03/24 10:48:06*;
MES=0.33; ; ; ; V/m; 3.65V; ;7.00;-4.00;4.00;28.40;65.19 -->26/03/24 10:48:06*;
MES=0.33; ; ; ; V/m; 3.65V; $GPRMC,144806.167,V,,,,,0.00,0.00,260324,,,N*43;;-11.00;2.00;-2.00;28.40;65.19 -->26/03/24 10:48:06*;
MES=0.32; ; ; ; V/m; 3.65V; $GPRMC,144806.167,V,,,,,0.00,0.00,260324,,,N*43;;9.00;-1.00;-1.00;28.40;65.19 -->26/03/24 10:48:06*;
MES=0.32; ; ; ; V/m; 3.65V; $GPRMC,144806.167,V,,,,,0.00,0.00,260324,,,N*43;;1.00;-1.00;1.00;28.40;65.19 -->26/03/24 10:48:07*;
MES=0.33; ; ; ; V/m; 3.65V; $GPRMC,144807.167,V,,,,,0.00,0.00,260324,,,N*42;;-9.00;6.00;-2.00;28.40;65.19 -->26/03/24 10:48:07*;
MES=0.33; ; ; ; V/m; 3.65V; $GPRMC,144807.167,V,,,,,0.00,0.00,260324,,,N*42;;8.00;-9.00;5.00;28.40;65.19 -->26/03/24 10:48:07*;
MES=0.33; ; ; ; V/m; 3.65V; $GPRMC,144807.167,V,,,,,0.00,0.00,260324,,,N*42;;-11.00;17.00;-9.00;28.40;65.19 -->26/03/24 10:48:07*;
MES=0.33; ; ; ; V/m; 3.65V; $GPRMC,144807.167,V,,,,,0.00,0.00,260324,,,N*42;;13.00;-17.00;11.00;28.40;65.19 -->26/03/24 10:48:08*;
MES=0.28; ; ; ; V/m; 3.65V; $GPRMC,144808.167,V,,,,,0.00,0.00,260324,,,N*4D;;-6.00;6.00;-10.00;28.40;65.19 -->26/03/24 10:48:08*;
MES=0.23; ; ; ; V/m; 3.65V; $GPRMC,144808.167,V,,,,,0.00,0.00,260324,,,N*4D;;6.00;-3.00;5.00;28.40;65.19 -->26/03/24 10:48:08*;
MES=0.23; ; ; ; V/m; 3.65V; $GPRMC,144808.167,V,,,,,0.00,0.00,260324,,,N*4D;;-1.00;1.00;2.00;28.40;65.19 -->26/03/24 10:48:08*;
MES=0.23; ; ; ; V/m; 3.65V; $GPRMC,144809.167,V,,,,,0.00,0.00,260324,,,N*4C;;-8.00;10.00;-3.00;28.40;65.19 -->26/03/24 10:48:09*;
MES=0.31; ; ; ; V/m; 3.65V; $GPRMC,144809.167,V,,,,,0.00,0.00,260324,,,N*4C;;9.00;-10.00;5.00;28.40;65.19 -->26/03/24 10:48:09*;
MES=0.33; ; ; ; V/m; 3.65V; $GPRMC,144809.167,V,,,,,0.00,0.00,260324,,,N*4C;;-4.00;5.00;-9.00;28.40;65.19 -->26/03/24 10:48:09*;
MES=0.31; ; ; ; V/m; 3.65V; $GPRMC,144809.167,V,,,,,0.00,0.00,260324,,,N*4C;;4.00;-6.00;8.00;28.40;65.19 -->26/03/24 10:48:10*;
MES=0.31; ; ; ; V/m; 3.65V; $GPRMC,144810.167,V,,,,,0.00,0.00,260324,,,N*44;;-1.00;1.00;-3.00;28.40;65.19 -->26/03/24 10:48:10*;
MES=0.32; ; ; ; V/m; 3.65V; $GPRMC,144810.167,V,,,,,0.00,0.00,260324,,,N*44;;-4.00;2.00;1.00;28.40;65.19 -->26/03/24 10:48:10*;
MES=0.32; ; ; ; V/m; 3.65V; $GPRMC,144810.167,V,,,,,0.00,0.00,260324,,,N*44;;3.00;-3.00;-2.00;28.40;65.19 -->26/03/24 10:48:10*;
MES=0.33; ; ; ; V/m; 3.65V; $GPRMC,144810.167,V,,,,,0.00,0.00,260324,,,N*44;;-8.00;3.00;4.00;28.40;65.19 -->26/03/24 10:48:11*;
MES=0.32; ; ; ; V/m; 3.65V; $GPRMC,144811.167,V,,,,,0.00,0.00,260324,,,N*45;;7.00;-2.00;-4.00;28.40;65.19 -->26/03/24 10:48:11*;
MES=0.32; ; ; ; V/m; 3.65V; $GPRMC,144811.167,V,,,,,0.00,0.00,260324,,,N*45;;0.00;0.00;1.00;28.40;65.19 -->26/03/24 10:48:11*;
MES=0.31; ; ; ; V/m; 3.65V; $GPRMC,144811.167,V,,,,,0.00,0.00,260324,,,N*45;;-8.00;2.00;3.00;28.40;65.19 -->26/03/24 10:48:11*;
MES=0.31; ; ; ; V/m; 3.65V; $GPRMC,144811.167,V,,,,,0.00,0.00,260324,,,N*45;;10.00;0.00;-3.00;28.40;65.19 -->26/03/24 10:48:12*;
MES=0.31; ; ; ; V/m; 3.65V; $GPRMC,144812.167,V,,,,,0.00,0.00,260324,,,N*46;;-10.00;0.00;2.00;28.40;65.19 -->26/03/24 10:48:12*;
MES=0.31; ; ; ; V/m; 3.65V; $GPRMC,144812.167,V,,,,,0.00,0.00,260324,,,N*46;;9.00;-1.00;0.00;28.40;65.19 -->26/03/24 10:48:12*;
MES=0.32; ; ; ; V/m; 3.65V; $GPRMC,144812.167,V,,,,,0.00,0.00,260324,,,N*46;;-4.00;1.00;-3.00;28.40;65.19 -->26/03/24 10:48:13*;
MES=0.33; ; ; ; V/m; 3.65V; $GPRMC,144812.167,V,,,,,0.00,0.00,260324,,,N*46;;6.00;-1.00;0.00;28.40;65.19 -->26/03/24 10:48:13*;
MES=0.33; ; ; ; V/m; 3.65V; $GPRMC,144813.167,V,,,,,0.00,0.00,260324,,,N*47;;-4.00;0.00;2.00;28.40;65.19 -->26/03/24 10:48:13*;
MES=0.34; ; ; ; V/m; 3.65V; $GPRMC,144813.167,V,,,,,0.00,0.00,260324,,,N*47;;-2.00;1.00;-1.00;28.40;65.19 -->26/03/24 10:48:13*;
MES=0.31; ; ; ; V/m; 3.65V; $GPRMC,144813.167,V,,,,,0.00,0.00,260324,,,N*47;;3.00;-1.00;-1.00;28.40;65.19 -->26/03/24 10:48:14*;
MES=0.31; ; ; ; V/m; 3.65V; $GPRMC,144814.167,V,,,,,0.00,0.00,260324,,,N*40;;-2.00;3.00;-1.00;28.40;65.19 -->26/03/24 10:48:14*;
MES=0.31; ; ; ; V/m; 3.65V; $GPRMC,144814.167,V,,,,,0.00,0.00,260324,,,N*40;;3.00;-2.00;2.00;28.40;65.19 -->26/03/24 10:48:14*;
MES=0.32; ; ; ; V/m; 3.65V; $GPRMC,144814.167,V,,,,,0.00,0.00,260324,,,N*40;;0.00;-4.00;-1.00;28.40;65.19 -->26/03/24 10:48:14*;
MES=0.33; ; ; ; V/m; 3.65V; $GPRMC,144814.167,V,,,,,0.00,0.00,260324,,,N*40;;-5.00;4.00;0.00;28.40;65.19 -->26/03/24 10:48:15*;
MES=0.32; ; ; ; V/m; 3.65V; $GPRMC,144815.167,V,,,,,0.00,0.00,260324,,,N*41;;4.00;-1.00;1.00;28.40;65.19 -->26/03/24 10:48:15*;
MES=0.32; ; ; ; V/m; 3.65V; $GPRMC,144815.167,V,,,,,0.00,0.00,260324,,,N*41;;-11.00;-2.00;-1.00;28.40;65.19 -->26/03/24 10:48:15*;
MES=0.33; ; ; ; V/m; 3.65V; $GPRMC,144815.167,V,,,,,0.00,0.00,260324,,,N*41;;21.00;4.00;-1.00;28.40;65.19 -->26/03/24 10:48:15*;
MES=0.31; ; ; ; V/m; 3.65V; $GPRMC,144815.167,V,,,,,0.00,0.00,260324,,,N*41;;-18.00;0.00;-1.00;28.40;65.19 -->26/03/24 10:48:16*;
MES=0.31; ; ; ; V/m; 3.65V; $GPRMC,144816.167,V,,,,,0.00,0.00,260324,,,N*42;;11.00;-3.00;3.00;28.40;65.19 -->26/03/24 10:48:16*;
MES=0.32; ; ; ; V/m; 3.65V; $GPRMC,144816.167,V,,,,,0.00,0.00,260324,,,N*42;;-11.00;1.00;5.00;28.40;65.19 -->26/03/24 10:48:16*;
MES=0.32; ; ; ; V/m; 3.65V; $GPRMC,144816.167,V,,,,,0.00,0.00,260324,,,N*42;;7.00;0.00;-8.00;28.40;65.19 -->26/03/24 10:48:17*;
MES=0.32; ; ; ; V/m; 3.65V; $GPRMC,144816.167,V,,,,,0.00,0.00,260324,,,N*42;;-1.00;-3.00;-1.00;28.40;65.19 -->26/03/24 10:48:17*;
MES=0.33; ; ; ; V/m; 3.65V; $GPRMC,144817.167,V,,,,,0.00,0.00,260324,,,N*43;;7.00;2.00;8.00;28.40;65.19 -->26/03/24 10:48:17*;
MES=0.33; ; ; ; V/m; 3.65V; $GPRMC,144817.167,V,,,,,0.00,0.00,260324,,,N*43;;-4.00;1.00;-2.00;28.40;65.19 -->26/03/24 10:48:17*;
MES=0.32; ; ; ; V/m; 3.65V; $GPRMC,144817.167,V,,,,,0.00,0.00,260324,,,N*43;;-3.00;0.00;-7.00;28.40;65.19 -->26/03/24 10:48:18*;
MES=0.32; ; ; ; V/m; 3.65V; $GPRMC,144817.938,V,,,,,0.00,0.00,260324,,,N*41;;0.00;-1.00;7.00;28.40;65.19 -->26/03/24 10:48:18*;
MES=0.33; ; ; ; V/m; 3.65V; $GPRMC,144818.158,V,,,,,0.00,0.00,260324,,,N*40;;-4.00;5.00;-5.00;28.40;65.19 -->26/03/24 10:48:18*;
MES=0.32; ; ; ; V/m; 3.65V; $GPRMC,144818.158,V,,,,,0.00,0.00,260324,,,N*40;;8.00;-5.00;1.00;28.40;65.19 -->26/03/24 10:48:18*;
MES=0.32; ; ; ; V/m; 3.65V; $GPRMC,144818.158,V,,,,,0.00,0.00,260324,,,N*40;;-6.00;0.00;14.00;28.40;65.19 -->26/03/24 10:48:19*;
MES=0.33; ; ; ; V/m; 3.65V; $GPRMC,144819.307,V,,,,,0.00,0.00,260324,,,N*49;;-3.00;4.00;-15.00;28.40;65.19 -->26/03/24 10:48:19*;
MES=0.32; ; ; ; V/m; 3.65V; $GPRMC,144819.307,V,,,,,0.00,0.00,260324,,,N*49;;-4.00;-3.00;4.00;28.40;65.19 -->26/03/24 10:48:19*;
MES=0.32; ; ; ; V/m; 3.65V; $GPRMC,144819.307,V,,,,,0.00,0.00,260324,,,N*49;;2.00;1.00;-6.00;28.40;65.19 -->26/03/24 10:48:19*;
MES=0.32; ; ; ; V/m; 3.65V; $GPRMC,144819.307,V,,,,,0.00,0.00,260324,,,N*49;;8.00;1.00;6.00;28.40;65.19 -->26/03/24 10:48:20*;
MES=0.33; ; ; ; V/m; 3.65V; $GPRMC,144820.307,V,,,,,0.00,0.00,260324,,,N*43;;0.00;-3.00;-3.00;28.40;65.19 -->26/03/24 10:48:20*;
MES=0.34; ; ; ; V/m; 3.65V; $GPRMC,144820.307,V,,,,,0.00,0.00,260324,,,N*43;;-5.00;3.00;0.00;28.40;65.19 -->26/03/24 10:48:20*;
MES=0.32; ; ; ; V/m; 3.65V; $GPRMC,144820.307,V,,,,,0.00,0.00,260324,,,N*43;;7.00;-4.00;4.00;28.40;65.19 -->26/03/24 10:48:21*;
MES=0.32; ; ; ; V/m; 3.65V; $GPRMC,144820.307,V,,,,,0.00,0.00,260324,,,N*43;;-10.00;1.00;1.00;28.40;65.19 -->26/03/24 10:48:21*;
MES=0.33; ; ; ; V/m; 3.65V; $GPRMC,144821.298,V,,,,,0.53,0.00,260324,,,N*43;;8.00;2.00;-8.00;28.40;65.19 -->26/03/24 10:48:21*;
MES=0.33; ; ; ; V/m; 3.65V; $GPRMC,144821.298,V,,,,,0.53,0.00,260324,,,N*43;;7.00;-6.00;-2.00;28.40;65.19 -->26/03/24 10:48:21*;
MES=0.33; ; ; ; V/m; 3.65V; $GPRMC,144821.298,V,,,,,0.53,0.00,260324,,,N*43;;-6.00;-25.00;-8.00;28.40;65.19 -->26/03/24 10:48:22*;
MES=0.33; ; ; ; V/m; 3.65V; $GPRMC,144821.298,V,,,,,0.53,0.00,260324,,,N*43;;-13.00;8.00;8.00;28.40;65.19 -->26/03/24 10:48:22*;
MES=0.33; ; ; ; V/m; 3.65V; $GPRMC,144822.298,V,,,,,0.36,0.00,260324,,,N*43;;23.00;20.00;10.00;28.40;65.19 -->26/03/24 10:48:22*;
MES=0.35; ; ; ; V/m; 3.65V; $GPRMC,144822.298,V,,,,,0.36,0.00,260324,,,N*43;;-15.00;-1.00;-16.00;28.40;65.19 -->26/03/24 10:48:22*;
MES=0.35; ; ; ; V/m; 3.65V; $GPRMC,144822.298,V,,,,,0.36,0.00,260324,,,N*43;;24.00;-3.00;-3.00;28.40;65.19 -->26/03/24 10:48:23*;
MES=0.35; ; ; ; V/m; 3.65V; $GPRMC,144823.298,V,,,,,0.37,0.00,260324,,,N*43;;-28.00;-4.00;-8.00;28.40;65.19 -->26/03/24 10:48:23*;
MES=0.37; ; ; ; V/m; 3.65V; $GPRMC,144823.298,V,,,,,0.37,0.00,260324,,,N*43;;14.00;-3.00;2.00;28.40;65.19 -->26/03/24 10:48:23*;
MES=0.38; ; ; ; V/m; 3.65V; $GPRMC,144823.298,V,,,,,0.37,0.00,260324,,,N*43;;-13.00;-15.00;10.00;28.40;65.19 -->26/03/24 10:48:23*;
MES=0.38; ; ; ; V/m; 3.65V; $GPRMC,144823.298,V,,,,,0.37,0.00,260324,,,N*43;;-1.00;-1.00;23.00;28.40;65.19 -->26/03/24 10:48:24*;
MES=0.38; ; ; ; V/m; 3.65V; $GPRMC,144824.298,V,,,,,2.02,3.00,260324,,,N*43;;11.00;53.00;-97.00;28.40;65.19 -->26/03/24 10:48:24*;
MES=0.37; ; ; ; V/m; 3.65V; $GPRMC,144824.298,V,,,,,2.02,3.00,260324,,,N*43;;-23.00;-26.00;98.00;28.40;65.19 -->26/03/24 10:48:24*;
MES=0.34; ; ; ; V/m; 3.65V; $GPRMC,144824.298,V,,,,,2.02,3.00,260324,,,N*43;;42.00;-12.00;-47.00;28.40;65.19 -->26/03/24 10:48:25*;
MES=0.34; ; ; ; V/m; 3.65V; $GPRMC,144824.298,V,,,,,2.02,3.00,260324,,,N*43;;-38.00;62.00;13.00;28.40;65.19 -->26/03/24 10:48:25*;
MES=0.34; ; ; ; V/m; 3.65V; $GPRMC,144825.298,A,1427.0988,S,05648.9989,W,2.44,2.41,260324,,,A*6F;;13.00;-84.00;70.00;28.40;65.19 -->26/03/24 10:48:25*;
MES=0.34; ; ; ; V/m; 3.65V; $GPRMC,144825.298,A,1427.0988,S,05648.9989,W,2.44,2.41,260324,,,A*6F;;19.00;37.00;-43.00;28.40;65.19 -->26/03/24 10:48:25*;
MES=0.36; ; ; ; V/m; 3.65V; $GPRMC,144825.298,A,1427.0988,S,05648.9989,W,2.44,2.41,260324,,,A*6F;;-17.00;33.00;-23.00;28.40;65.19 -->26/03/24 10:48:26*;
MES=0.33; ; ; ; V/m; 3.65V; $GPRMC,144825.298,A,1427.0988,S,05648.9989,W,2.44,2.41,260324,,,A*6F;;-16.00;-27.00;-58.00;28.40;65.19 -->26/03/24 10:48:26*;
MES=0.33; ; ; ; V/m; 3.65V; $GPRMC,144826.298,A,1427.0980,S,05649.0001,W,2.47,354.16,260324,,,A*64;;12.00;-30.00;102.00;28.40;65.19 -->26/03/24 10:48:26*;
MES=0.33; ; ; ; V/m; 3.65V; $GPRMC,144826.298,A,1427.0980,S,05649.0001,W,2.47,354.16,260324,,,A*64;;21.00;27.00;-41.00;28.40;65.19 -->26/03/24 10:48:26*;
MES=0.33; ; ; ; V/m; 3.65V; $GPRMC,144826.298,A,1427.0980,S,05649.0001,W,2.47,354.16,260324,,,A*64;;-15.00;16.00;-36.00;28.40;65.19 -->26/03/24 10:48:27*;
MES=0.35; ; ; ; V/m; 3.65V; $GPRMC,144826.298,A,1427.0980,S,05649.0001,W,2.47,354.16,260324,,,A*64;;38.00;-28.00;56.00;28.40;65.19 -->26/03/24 10:48:27*;
MES=0.35; ; ; ; V/m; 3.65V; $GPRMC,144826.298,A,1427.0980,S,05649.0001,W,2.47,354.16,260324,,,A*64;;-46.00;41.00;-35.00;28.40;65.19 -->26/03/24 10:48:27*;
MES=0.42; ; ; ; V/m; 3.65V; $GPRMC,144826.298,A,1427.0980,S,05649.0001,W,2.47,354.16,260324,,,A*64;;21.00;-27.00;12.00;28.40;65.19 -->26/03/24 10:48:28*;
MES=0.45; ; ; ; V/m; 3.65V; $GPRMC,144828.000,A,1427.0978,S,05648.9984,W,2.23,10.30,260324,,,A*57;;-7.00;57.00;-28.00;28.40;65.19 -->26/03/24 10:48:28*;
MES=0.39; ; ; ; V/m; 3.65V; $GPRMC,144828.000,A,1427.0978,S,05648.9984,W,2.23,10.30,260324,,,A*57;;-24.00;-1.00;54.00;28.40;65.19 -->26/03/24 10:48:28*;
MES=0.36; ; ; ; V/m; 3.65V; $GPRMC,144828.000,A,1427.0978,S,05648.9984,W,2.23,10.30,260324,,,A*57;;18.00;-53.00;41.00;28.40;65.19 -->26/03/24 10:48:28*;
MES=0.33; ; ; ; V/m; 3.65V; $GPRMC,144828.000,A,1427.0978,S,05648.9984,W,2.23,10.30,260324,,,A*57;;-20.00;28.00;7.00;28.40;65.19 -->26/03/24 10:48:29*;
MES=0.31; ; ; ; V/m; 3.65V; $GPRMC,144829.000,A,1427.0963,S,05648.9993,W,2.07,5.12,260324,,,A*68;;28.00;49.00;-56.00;28.40;65.19 -->26/03/24 10:48:29*;
MES=0.31; ; ; ; V/m; 3.65V; $GPRMC,144829.000,A,1427.0963,S,05648.9993,W,2.07,5.12,260324,,,A*68;;-7.00;-20.00;30.00;28.40;65.19 -->26/03/24 10:48:29*;
MES=0.32; ; ; ; V/m; 3.65V; $GPRMC,144829.000,A,1427.0963,S,05648.9993,W,2.07,5.12,260324,,,A*68;;-10.00;-55.00;-43.00;28.40;65.19 -->26/03/24 10:48:29*;
MES=0.32; ; ; ; V/m; 3.65V; $GPRMC,144829.000,A,1427.0963,S,05648.9993,W,2.07,5.12,260324,,,A*68;;3.00;10.00;1.00;28.40;65.19 -->26/03/24 10:48:30*;
MES=0.32; ; ; ; V/m; 3.65V; $GPRMC,144830.000,A,1427.0962,S,05648.9984,W,0.47,5.12,260324,,,A*61;;10.00;-7.00;8.00;28.40;65.19 -->26/03/24 10:48:30*;
MES=0.33; ; ; ; V/m; 3.65V; $GPRMC,144830.000,A,1427.0962,S,05648.9984,W,0.47,5.12,260324,,,A*61;;3.00;15.00;-14.00;28.40;65.19 -->26/03/24 10:48:30*;
MES=0.32; ; ; ; V/m; 3.65V; $GPRMC,144830.000,A,1427.0962,S,05648.9984,W,0.47,5.12,260324,,,A*61;;1.00;-20.00;14.00;28.40;65.19 -->26/03/24 10:48:30*;
MES=0.32; ; ; ; V/m; 3.65V; $GPRMC,144830.000,A,1427.0962,S,05648.9984,W,0.47,5.12,260324,,,A*61;;-14.00;9.00;-8.00;28.40;65.19 -->26/03/24 10:48:31*;
MES=0.32; ; ; ; V/m; 3.65V; $GPRMC,144831.000,A,1427.0950,S,05648.9996,W,0.08,5.12,260324,,,A*69;;1.00;-2.00;2.00;28.40;65.19 -->26/03/24 10:48:31*;
MES=0.32; ; ; ; V/m; 3.65V; $GPRMC,144831.000,A,1427.0950,S,05648.9996,W,0.08,5.12,260324,,,A*69;;8.00;3.00;2.00;28.40;65.19 -->26/03/24 10:48:31*;
MES=0.33; ; ; ; V/m; 3.65V; $GPRMC,144831.000,A,1427.0950,S,05648.9996,W,0.08,5.12,260324,,,A*69;;0.00;-5.00;1.00;28.40;65.19 -->26/03/24 10:48:32*;
MES=0.32; ; ; ; V/m; 3.62V; $GPRMC,144832.000,A,1427.0949,S,05648.9999,W,0.68,268.39,260324,,,A*6B;;-11.00;-3.00;2.00;28.40;65.19 -->26/03/24 10:48:32*;
MES=0.32; ; ; ; V/m; 3.62V; $GPRMC,144832.000,A,1427.0949,S,05648.9999,W,0.68,268.39,260324,,,A*6B;;9.00;11.00;-10.00;28.40;65.19 -->26/03/24 10:48:32*;
MES=0.32; ; ; ; V/m; 3.62V; $GPRMC,144832.000,A,1427.0949,S,05648.9999,W,0.68,268.39,260324,,,A*6B;;3.00;-4.00;7.00;28.40;65.19 -->26/03/24 10:48:32*;
MES=0.32; ; ; ; V/m; 3.62V; $GPRMC,144832.000,A,1427.0949,S,05648.9999,W,0.68,268.39,260324,,,A*6B;;-13.00;-3.00;-4.00;28.40;65.19 -->26/03/24 10:48:33*;
MES=0.32; ; ; ; V/m; 3.62V; $GPRMC,144833.000,A,1427.0945,S,05648.9994,W,0.20,268.39,260324,,,A*67;;3.00;-6.00;7.00;28.40;65.19 -->26/03/24 10:48:33*;
MES=0.33; ; ; ; V/m; 3.62V; $GPRMC,144833.000,A,1427.0945,S,05648.9994,W,0.20,268.39,260324,,,A*67;;15.00;9.00;-2.00;28.40;65.19 -->26/03/24 10:48:33*;
MES=0.34; ; ; ; V/m; 3.62V; $GPRMC,144833.000,A,1427.0945,S,05648.9994,W,0.20,268.39,260324,,,A*67;;-18.00;-7.00;0.00;28.40;65.19 -->26/03/24 10:48:33*;
MES=0.34; ; ; ; V/m; 3.62V; $GPRMC,144833.000,A,1427.0945,S,05648.9994,W,0.20,268.39,260324,,,A*67;;1.00;4.00;-4.00;28.40;65.19 -->26/03/24 10:48:34*;
MES=0.34; ; ; ; V/m; 3.62V; $GPRMC,144834.000,A,1427.0949,S,05648.9995,W,0.41,268.39,260324,,,A*6A;;11.00;-14.00;3.00;28.40;65.19 -->26/03/24 10:48:34*;
MES=0.32; ; ; ; V/m; 3.62V; $GPRMC,144834.000,A,1427.0949,S,05648.9995,W,0.41,268.39,260324,,,A*6A;;-16.00;9.00;0.00;28.40;65.19 -->26/03/24 10:48:34*;
MES=0.32; ; ; ; V/m; 3.62V; $GPRMC,144834.000,A,1427.0949,S,05648.9995,W,0.41,268.39,260324,,,A*6A;;7.00;-2.00;-10.00;28.40;65.19 -->26/03/24 10:48:35*;
MES=0.33; ; ; ; V/m; 3.62V; $GPRMC,144835.000,A,1427.0952,S,05649.0007,W,0.13,268.39,260324,,,A*6C;;-15.00;-24.00;-31.00;28.40;65.19 -->26/03/24 10:48:35*;
MES=0.33; ; ; ; V/m; 3.62V; $GPRMC,144835.000,A,1427.0952,S,05649.0007,W,0.13,268.39,260324,,,A*6C;;-4.00;0.00;2.00;28.40;65.19 -->26/03/24 10:48:35*;
MES=0.33; ; ; ; V/m; 3.62V; $GPRMC,144835.000,A,1427.0952,S,05649.0007,W,0.13,268.39,260324,,,A*6C;;63.00;1.00;19.00;28.40;65.19 -->26/03/24 10:48:35*;
MES=0.33; ; ; ; V/m; 3.62V; $GPRMC,144835.000,A,1427.0952,S,05649.0007,W,0.13,268.39,260324,,,A*6C;;-40.00;-1.00;14.00;28.40;65.19 -->26/03/24 10:48:36*;
MES=0.36; ; ; ; V/m; 3.62V; $GPRMC,144836.000,A,1427.0950,S,05649.0004,W,0.76,13.21,260324,,,A*5A;;5.00;23.00;-31.00;28.40;65.19 -->26/03/24 10:48:36*;
MES=0.39; ; ; ; V/m; 3.62V; $GPRMC,144836.000,A,1427.0950,S,05649.0004,W,0.76,13.21,260324,,,A*5A;;-12.00;-27.00;61.00;28.40;65.19 -->26/03/24 10:48:36*;
MES=0.40; ; ; ; V/m; 3.62V; $GPRMC,144836.000,A,1427.0950,S,05649.0004,W,0.76,13.21,260324,,,A*5A;;24.00;68.00;-35.00;28.40;65.19 -->26/03/24 10:48:36*;
MES=0.38; ; ; ; V/m; 3.62V; $GPRMC,144836.000,A,1427.0950,S,05649.0004,W,0.76,13.21,260324,,,A*5A;;1.00;-4.00;-4.00;28.40;65.19 -->26/03/24 10:48:37*;
MES=0.38; ; ; ; V/m; 3.62V; $GPRMC,144837.000,A,1427.0944,S,05649.0003,W,1.94,8.81,260324,,,A*64;;-34.00;-32.00;-19.00;28.40;65.19 -->26/03/24 10:48:37*;
MES=0.39; ; ; ; V/m; 3.62V; $GPRMC,144837.000,A,1427.0944,S,05649.0003,W,1.94,8.81,260324,,,A*64;;26.00;13.00;-36.00;28.40;65.19 -->26/03/24 10:48:37*;
MES=0.36; ; ; ; V/m; 3.62V; $GPRMC,144837.000,A,1427.0944,S,05649.0003,W,1.94,8.81,260324,,,A*64;;-18.00;-48.00;69.00;28.40;65.19 -->26/03/24 10:48:38*;
MES=0.36; ; ; ; V/m; 3.62V; $GPRMC,144838.000,A,1427.0935,S,05649.0001,W,2.42,14.46,260324,,,A*51;;28.00;32.00;-55.00;28.40;65.19 -->26/03/24 10:48:38*;
MES=0.38; ; ; ; V/m; 3.62V; $GPRMC,144838.000,A,1427.0935,S,05649.0001,W,2.42,14.46,260324,,,A*51;;-7.00;5.00;61.00;28.40;65.19 -->26/03/24 10:48:38*;
MES=0.40; ; ; ; V/m; 3.62V; $GPRMC,144838.000,A,1427.0935,S,05649.0001,W,2.42,14.46,260324,,,A*51;;-68.00;23.00;-73.00;28.40;65.19 -->26/03/24 10:48:38*;
MES=0.42; ; ; ; V/m; 3.62V; $GPRMC,144838.000,A,1427.0935,S,05649.0001,W,2.42,14.46,260324,,,A*51;;41.00;-1.00;14.00;28.40;65.19 -->26/03/24 10:48:39*;
MES=0.42; ; ; ; V/m; 3.62V; $GPRMC,144839.000,A,1427.0930,S,05649.0004,W,3.25,33.62,260324,,,A*53;;22.00;-13.00;49.00;28.40;65.19 -->26/03/24 10:48:39*;
MES=0.42; ; ; ; V/m; 3.62V; $GPRMC,144839.000,A,1427.0930,S,05649.0004,W,3.25,33.62,260324,,,A*53;;-21.00;59.00;-137.00;28.40;65.19 -->26/03/24 10:48:39*;
MES=0.44; ; ; ; V/m; 3.62V; $GPRMC,144839.000,A,1427.0930,S,05649.0004,W,3.25,33.62,260324,,,A*53;;36.00;-57.00;146.00;28.40;65.19 -->26/03/24 10:48:39*;
MES=0.45; ; ; ; V/m; 3.62V; $GPRMC,144839.000,A,1427.0930,S,05649.0004,W,3.25,33.62,260324,,,A*53;;16.00;69.00;-69.00;28.40;65.19 -->26/03/24 10:48:40*;
MES=0.39; ; ; ; V/m; 3.62V; $GPRMC,144840.000,A,1427.0924,S,05648.9994,W,3.75,51.60,260324,,,A*53;;-67.00;-94.00;40.00;28.40;65.19 -->26/03/24 10:48:40*;
MES=0.39; ; ; ; V/m; 3.62V; $GPRMC,144840.000,A,1427.0924,S,05648.9994,W,3.75,51.60,260324,,,A*53;;14.00;48.00;0.00;28.40;65.19 -->26/03/24 10:48:40*;
MES=0.40; ; ; ; V/m; 3.62V; $GPRMC,144840.000,A,1427.0924,S,05648.9994,W,3.75,51.60,260324,,,A*53;;-11.00;-21.00;-5.00;28.40;65.19 -->26/03/24 10:48:41*;
MES=0.40; ; ; ; V/m; 3.62V; $GPRMC,144840.000,A,1427.0924,S,05648.9994,W,3.75,51.60,260324,,,A*53;;27.00;2.00;40.00;28.40;65.19 -->26/03/24 10:48:41*;
MES=0.44; ; ; ; V/m; 3.62V; $GPRMC,144841.000,A,1427.0923,S,05648.9970,W,4.71,77.08,260324,,,A*56;;-5.00;-22.00;7.00;28.40;65.19 -->26/03/24 10:48:41*;
MES=0.39; ; ; ; V/m; 3.62V; $GPRMC,144841.000,A,1427.0923,S,05648.9970,W,4.71,77.08,260324,,,A*56;;30.00;14.00;-10.00;28.40;65.19 -->26/03/24 10:48:41*;
MES=0.36; ; ; ; V/m; 3.62V; $GPRMC,144841.000,A,1427.0923,S,05648.9970,W,4.71,77.08,260324,,,A*56;;-20.00;-51.00;8.00;28.40;65.19 -->26/03/24 10:48:42*;
MES=0.36; ; ; ; V/m; 3.62V; $GPRMC,144842.000,A,1427.0924,S,05648.9957,W,5.48,95.17,260324,,,A*5E;;-4.00;6.00;-25.00;28.40;65.19 -->26/03/24 10:48:42*;
MES=0.42; ; ; ; V/m; 3.62V; $GPRMC,144842.000,A,1427.0924,S,05648.9957,W,5.48,95.17,260324,,,A*5E;;-6.00;0.00;2.00;28.40;65.19 -->26/03/24 10:48:42*;
MES=0.34; ; ; ; V/m; 3.62V; $GPRMC,144842.000,A,1427.0924,S,05648.9957,W,5.48,95.17,260324,,,A*5E;;6.00;18.00;70.00;28.40;65.19 -->26/03/24 10:48:42*;
MES=0.32; ; ; ; V/m; 3.62V; $GPRMC,144842.000,A,1427.0924,S,05648.9957,W,5.48,95.17,260324,,,A*5E;;7.00;-34.00;1.00;28.40;65.19 -->26/03/24 10:48:43*;
MES=0.32; ; ; ; V/m; 3.62V; $GPRMC,144843.000,A,1427.0925,S,05648.9937,W,5.73,101.31,260324,,,A*68;;2.00;68.00;-49.00;28.40;65.19 -->26/03/24 10:48:43*;
MES=0.35; ; ; ; V/m; 3.62V; $GPRMC,144843.000,A,1427.0925,S,05648.9937,W,5.73,101.31,260324,,,A*68;;-8.00;-47.00;34.00;28.40;65.19 -->26/03/24 10:48:43*;
MES=0.34; ; ; ; V/m; 3.62V; $GPRMC,144843.000,A,1427.0925,S,05648.9937,W,5.73,101.31,260324,,,A*68;;4.00;17.00;-23.00;28.40;65.19 -->26/03/24 10:48:43*;
MES=0.34; ; ; ; V/m; 3.62V; $GPRMC,144843.000,A,1427.0925,S,05648.9937,W,5.73,101.31,260324,,,A*68;;8.00;-1.00;0.00;28.40;65.19 -->26/03/24 10:48:44*;
MES=0.23; ; ; ; V/m; 3.62V; $GPRMC,144844.000,A,1427.0929,S,05648.9919,W,6.64,99.33,260324,,,A*58;;-14.00;1.00;-3.00;28.40;65.19 -->26/03/24 10:48:44*;
MES=0.23; ; ; ; V/m; 3.62V; $GPRMC,144844.000,A,1427.0929,S,05648.9919,W,6.64,99.33,260324,,,A*58;;-13.00;-9.00;-16.00;28.40;65.19 -->26/03/24 10:48:44*;
MES=0.30; ; ; ; V/m; 3.62V; $GPRMC,144844.000,A,1427.0929,S,05648.9919,W,6.64,99.33,260324,,,A*58;;-1.00;-2.00;-7.00;28.40;65.19 -->26/03/24 10:48:45*;
MES=0.32; ; ; ; V/m; 3.62V; $GPRMC,144845.000,A,1427.0935,S,05648.9895,W,6.97,99.03,260324,,,A*5E;;17.00;-13.00;19.00;28.40;65.19 -->26/03/24 10:48:45*;
MES=0.39; ; ; ; V/m; 3.62V; $GPRMC,144845.000,A,1427.0935,S,05648.9895,W,6.97,99.03,260324,,,A*5E;;0.00;-10.00;-10.00;28.40;65.19 -->26/03/24 10:48:45*;
MES=0.43; ; ; ; V/m; 3.62V; $GPRMC,144845.000,A,1427.0935,S,05648.9895,W,6.97,99.03,260324,,,A*5E;;-45.00;45.00;-51.00;28.40;65.19 -->26/03/24 10:48:45*;
MES=0.40; ; ; ; V/m; 3.62V; $GPRMC,144845.000,A,1427.0935,S,05648.9895,W,6.97,99.03,260324,,,A*5E;;56.00;-33.00;46.00;28.40;65.19 -->26/03/24 10:48:46*;
MES=0.37; ; ; ; V/m; 3.62V; $GPRMC,144846.000,A,1427.0938,S,05648.9879,W,7.22,97.95,260324,,,A*5C;;-24.00;10.00;-1.00;28.40;65.19 -->26/03/24 10:48:46*;
MES=0.37; ; ; ; V/m; 3.62V; $GPRMC,144846.000,A,1427.0938,S,05648.9879,W,7.22,97.95,260324,,,A*5C;;22.00;-7.00;5.00;28.40;65.19 -->26/03/24 10:48:46*;
MES=0.45; ; ; ; V/m; 3.62V; $GPRMC,144846.000,A,1427.0938,S,05648.9879,W,7.22,97.95,260324,,,A*5C;;-10.00;29.00;14.00;28.40;65.19 -->26/03/24 10:48:46*;
MES=0.46; ; ; ; V/m; 3.62V; $GPRMC,144846.000,A,1427.0938,S,05648.9879,W,7.22,97.95,260324,,,A*5C;;0.00;-37.00;11.00;28.40;65.19 -->26/03/24 10:48:47*;
MES=0.40; ; ; ; V/m; 3.62V; $GPRMC,144847.000,A,1427.0942,S,05648.9863,W,8.91,97.71,260324,,,A*56;;-12.00;41.00;-57.00;28.40;65.19 -->26/03/24 10:48:47*;
MES=0.40; ; ; ; V/m; 3.62V; $GPRMC,144847.000,A,1427.0942,S,05648.9863,W,8.91,97.71,260324,,,A*56;;-5.00;-29.00;66.00;28.40;65.19 -->26/03/24 10:48:47*;
MES=0.38; ; ; ; V/m; 3.62V; $GPRMC,144847.000,A,1427.0942,S,05648.9863,W,8.91,97.71,260324,,,A*56;;11.00;28.00;-43.00;28.40;65.19 -->26/03/24 10:48:48*;
MES=0.38; ; ; ; V/m; 3.62V; $GPRMC,144848.000,A,1427.0940,S,05648.9820,W,10.47,95.46,260324,,,A*68;;6.00;-34.00;36.00;28.40;65.19 -->26/03/24 10:48:48*;
MES=0.39; ; ; ; V/m; 3.62V; $GPRMC,144848.000,A,1427.0940,S,05648.9820,W,10.47,95.46,260324,,,A*68;;-1.00;12.00;-42.00;28.40;65.19 -->26/03/24 10:48:48*;
MES=0.44; ; ; ; V/m; 3.62V; $GPRMC,144848.000,A,1427.0940,S,05648.9820,W,10.47,95.46,260324,,,A*68;;-2.00;36.00;-30.00;28.40;65.19 -->26/03/24 10:48:48*;
MES=0.42; ; ; ; V/m; 3.62V; $GPRMC,144848.000,A,1427.0940,S,05648.9820,W,10.47,95.46,260324,,,A*68;;-10.00;-65.00;66.00;28.40;65.19 -->26/03/24 10:48:49*;
MES=0.39; ; ; ; V/m; 3.62V; $GPRMC,144849.000,A,1427.0947,S,05648.9790,W,11.73,95.05,260324,,,A*6B;;-8.00;51.00;-7.00;28.40;65.19 -->26/03/24 10:48:49*;
MES=0.35; ; ; ; V/m; 3.62V; $GPRMC,144849.000,A,1427.0947,S,05648.9790,W,11.73,95.05,260324,,,A*6B;;31.00;-33.00;-5.00;28.40;65.19 -->26/03/24 10:48:49*;
MES=0.25; ; ; ; V/m; 3.62V; $GPRMC,144849.000,A,1427.0947,S,05648.9790,W,11.73,95.05,260324,,,A*6B;;-22.00;22.00;11.00;28.40;65.19 -->26/03/24 10:48:49*;
MES=0.25; ; ; ; V/m; 3.62V; $GPRMC,144849.000,A,1427.0947,S,05648.9790,W,11.73,95.05,260324,,,A*6B;;3.00;1.00;-23.00;28.40;65.19 -->26/03/24 10:48:50*;
MES=0.37; ; ; ; V/m; 3.62V; $GPRMC,144850.000,A,1427.0956,S,05648.9755,W,12.09,97.03,260324,,,A*60;;14.00;-4.00;10.00;28.40;65.19 -->26/03/24 10:48:50*;
MES=0.37; ; ; ; V/m; 3.62V; $GPRMC,144850.000,A,1427.0956,S,05648.9755,W,12.09,97.03,260324,,,A*60;;-13.00;35.00;-46.00;28.40;65.19 -->26/03/24 10:48:50*;
MES=0.37; ; ; ; V/m; 3.62V; $GPRMC,144850.000,A,1427.0956,S,05648.9755,W,12.09,97.03,260324,,,A*60;;14.00;-71.00;91.00;28.40;65.19 -->26/03/24 10:48:51*;
MES=0.37; ; ; ; V/m; 3.62V; $GPRMC,144851.000,A,1427.0952,S,05648.9714,W,13.17,95.90,260324,,,A*66;;-22.00;50.00;-65.00;28.40;65.19 -->26/03/24 10:48:51*;
MES=0.37; ; ; ; V/m; 3.62V; $GPRMC,144851.000,A,1427.0952,S,05648.9714,W,13.17,95.90,260324,,,A*66;;15.00;-47.00;16.00;28.40;65.19 -->26/03/24 10:48:51*;
MES=0.39; ; ; ; V/m; 3.62V; $GPRMC,144851.000,A,1427.0952,S,05648.9714,W,13.17,95.90,260324,,,A*66;;-4.00;58.00;-7.00;28.40;65.19 -->26/03/24 10:48:51*;
MES=0.44; ; ; ; V/m; 3.62V; $GPRMC,144851.000,A,1427.0952,S,05648.9714,W,13.17,95.90,260324,,,A*66;;-19.00;-73.00;-17.00;28.40;65.19 -->26/03/24 10:48:52*;
MES=0.34; ; ; ; V/m; 3.62V; $GPRMC,144852.000,A,1427.0959,S,05648.9676,W,13.64,94.74,260324,,,A*64;;15.00;28.00;62.00;28.40;65.19 -->26/03/24 10:48:52*;
MES=0.00; ; ; ; V/m; 3.62V; $GPRMC,144852.000,A,1427.0959,S,05648.9676,W,13.64,94.74,260324,,,A*64;;39.00;-14.00;-53.00;28.40;65.19 -->26/03/24 10:48:52*;
MES=0.00; ; ; ; V/m; 3.62V; $GPRMC,144852.000,A,1427.0959,S,05648.9676,W,13.64,94.74,260324,,,A*64;;-53.00;36.00;-56.00;28.40;65.19 -->26/03/24 10:48:52*;
MES=0.00; ; ; ; V/m; 3.62V; $GPRMC,144852.000,A,1427.0959,S,05648.9676,W,13.64,94.74,260324,,,A*64;;-9.00;10.00;72.00;28.40;65.19 -->26/03/24 10:48:53*;
MES=0.21; ; ; ; V/m; 3.62V; $GPRMC,144853.000,A,1427.0955,S,05648.9630,W,14.75,95.16,260324,,,A*69;;29.00;-57.00;-4.00;28.40;65.19 -->26/03/24 10:48:53*;
MES=0.22; ; ; ; V/m; 3.62V; $GPRMC,144853.000,A,1427.0955,S,05648.9630,W,14.75,95.16,260324,,,A*69;;-9.00;44.00;-11.00;28.40;65.19 -->26/03/24 10:48:53*;
MES=0.26; ; ; ; V/m; 3.62V; $GPRMC,144853.000,A,1427.0955,S,05648.9630,W,14.75,95.16,260324,,,A*69;;14.00;-30.00;52.00;28.40;65.19 -->26/03/24 10:48:54*;
MES=0.26; ; ; ; V/m; 3.62V; $GPRMC,144853.000,A,1427.0955,S,05648.9630,W,14.75,95.16,260324,,,A*69;;-20.00;22.00;-77.00;28.40;65.19 -->26/03/24 10:48:54*;
MES=0.32; ; ; ; V/m; 3.62V; $GPRMC,144854.000,A,1427.0957,S,05648.9580,W,15.59,96.49,260324,,,A*62;;2.00;27.00;106.00;28.40;65.19 -->26/03/24 10:48:54*;
MES=0.20; ; ; ; V/m; 3.62V; $GPRMC,144854.000,A,1427.0957,S,05648.9580,W,15.59,96.49,260324,,,A*62;;34.00;-30.00;-82.00;28.40;65.19 -->26/03/24 10:48:54*;
MES=0.00; ; ; ; V/m; 3.62V; $GPRMC,144854.000,A,1427.0957,S,05648.9580,W,15.59,96.49,260324,,,A*62;;3.00;41.00;2.00;28.40;65.19 -->26/03/24 10:48:55*;
MES=0.00; ; ; ; V/m; 3.62V; $GPRMC,144855.000,A,1427.0960,S,05648.9527,W,16.77,94.54,260324,,,A*6B;;-34.00;-31.00;0.00;28.40;65.19 -->26/03/24 10:48:55*;
MES=0.00; ; ; ; V/m; 3.62V; $GPRMC,144855.000,A,1427.0960,S,05648.9527,W,16.77,94.54,260324,,,A*6B;;35.00;10.00;3.00;28.40;65.19 -->26/03/24 10:48:55*;
MES=0.00; ; ; ; V/m; 3.62V; $GPRMC,144855.000,A,1427.0960,S,05648.9527,W,16.77,94.54,260324,,,A*6B;;-62.00;-22.00;32.00;28.40;65.19 -->26/03/24 10:48:55*;
MES=0.00; ; ; ; V/m; 3.62V; $GPRMC,144855.000,A,1427.0960,S,05648.9527,W,16.77,94.54,260324,,,A*6B;;62.00;42.00;-70.00;28.40;65.19 -->26/03/24 10:48:56*;
MES=0.00; ; ; ; V/m; 3.62V; $GPRMC,144856.000,A,1427.0967,S,05648.9476,W,17.38,94.93,260324,,,A*6B;;-70.00;-41.00;48.00;28.40;65.19 -->26/03/24 10:48:56*;
MES=0.00; ; ; ; V/m; 3.62V; $GPRMC,144856.000,A,1427.0967,S,05648.9476,W,17.38,94.93,260324,,,A*6B;;82.00;11.00;51.00;28.40;65.19 -->26/03/24 10:48:56*;
MES=0.00; ; ; ; V/m; 3.62V; $GPRMC,144856.000,A,1427.0967,S,05648.9476,W,17.38,94.93,260324,,,A*6B;;-26.00;26.00;-81.00;28.40;65.19 -->26/03/24 10:48:56*;
MES=0.32; ; ; ; V/m; 3.62V; $GPRMC,144856.000,A,1427.0967,S,05648.9476,W,17.38,94.93,260324,,,A*6B;;-14.00;-35.00;52.00;28.40;65.19 -->26/03/24 10:48:57*;
MES=0.32; ; ; ; V/m; 3.62V; $GPRMC,144857.000,A,1427.0972,S,05648.9426,W,17.81,95.54,260324,,,A*63;;6.00;-29.00;-50.00;28.40;65.19 -->26/03/24 10:48:57*;
MES=0.31; ; ; ; V/m; 3.62V; $GPRMC,144857.000,A,1427.0972,S,05648.9426,W,17.81,95.54,260324,,,A*63;;-57.00;43.00;90.00;28.40;65.19 -->26/03/24 10:48:57*;
MES=0.26; ; ; ; V/m; 3.62V; $GPRMC,144857.000,A,1427.0972,S,05648.9426,W,17.81,95.54,260324,,,A*63;;36.00;20.00;-66.00;28.40;65.19 -->26/03/24 10:48:58*;
MES=0.26; ; ; ; V/m; 3.62V; $GPRMC,144858.000,A,1427.0978,S,05648.9374,W,18.67,95.82,260324,,,A*6A;;24.00;-46.00;-25.00;28.40;65.19 -->26/03/24 10:48:58*;
MES=0.22; ; ; ; V/m; 3.62V; $GPRMC,144858.000,A,1427.0978,S,05648.9374,W,18.67,95.82,260324,,,A*6A;;-37.00;-3.00;87.00;28.40;65.19 -->26/03/24 10:48:58*;
MES=0.22; ; ; ; V/m; 3.62V; $GPRMC,144858.000,A,1427.0978,S,05648.9374,W,18.67,95.82,260324,,,A*6A;;35.00;-20.00;-61.00;28.40;65.19 -->26/03/24 10:48:58*;
MES=0.48; ; ; ; V/m; 3.62V; $GPRMC,144858.000,A,1427.0978,S,05648.9374,W,18.67,95.82,260324,,,A*6A;;8.00;62.00;26.00;28.40;65.19 -->26/03/24 10:48:59*;
MES=0.50; ; ; ; V/m; 3.62V; $GPRMC,144859.000,A,1427.0984,S,05648.9321,W,18.74,96.04,260324,,,A*67;;-22.00;-38.00;-81.00;28.40;65.19 -->26/03/24 10:48:59*;
MES=0.46; ; ; ; V/m; 3.62V; $GPRMC,144859.000,A,1427.0984,S,05648.9321,W,18.74,96.04,260324,,,A*67;;-21.00;15.00;66.00;28.40;65.19 -->26/03/24 10:48:59*;
MES=0.34; ; ; ; V/m; 3.62V; $GPRMC,144859.000,A,1427.0984,S,05648.9321,W,18.74,96.04,260324,,,A*67;;92.00;45.00;-1.00;28.40;65.19 -->26/03/24 10:48:59*;
MES=0.00; ; ; ; V/m; 3.62V; $GPRMC,144859.000,A,1427.0984,S,05648.9321,W,18.74,96.04,260324,,,A*67;;-77.00;-72.00;9.00;28.40;65.19 -->26/03/24 10:49:00*;
MES=0.00; ; ; ; V/m; 3.62V; $GPRMC,144900.000,A,1427.0989,S,05648.9267,W,19.51,94.88,260324,,,A*64;;9.00;91.00;-37.00;28.65;63.81 -->26/03/24 10:49:00*;
MES=0.00; ; ; ; V/m; 3.62V; $GPRMC,144900.000,A,1427.0989,S,05648.9267,W,19.51,94.88,260324,,,A*64;;-6.00;-61.00;25.00;28.65;63.81 -->26/03/24 10:49:00*;
MES=0.00; ; ; ; V/m; 3.62V; $GPRMC,144900.000,A,1427.0989,S,05648.9267,W,19.51,94.88,260324,,,A*64;;5.00;10.00;-7.00;28.65;63.81 -->26/03/24 10:49:01*;
MES=0.46; ; ; ; V/m; 3.62V; $GPRMC,144901.000,A,1427.0995,S,05648.9210,W,20.48,94.75,260324,,,A*68;;20.00;-36.00;-3.00;28.65;63.81 -->26/03/24 10:49:01*;
MES=0.43; ; ; ; V/m; 3.62V; $GPRMC,144901.000,A,1427.0995,S,05648.9210,W,20.48,94.75,260324,,,A*68;;-11.00;39.00;4.00;28.65;63.81 -->26/03/24 10:49:01*;
MES=0.31; ; ; ; V/m; 3.62V; $GPRMC,144901.000,A,1427.0995,S,05648.9210,W,20.48,94.75,260324,,,A*68;;-11.00;30.00;-65.00;28.65;63.81 -->26/03/24 10:49:01*;
MES=0.31; ; ; ; V/m; 3.62V; $GPRMC,144901.000,A,1427.0995,S,05648.9210,W,20.48,94.75,260324,,,A*68;;-17.00;22.00;68.00;28.65;63.81 -->26/03/24 10:49:02*;
MES=0.00; ; ; ; V/m; 3.62V; $GPRMC,144902.000,A,1427.1000,S,05648.9152,W,20.65,95.72,260324,,,A*63;;46.00;-98.00;98.00;28.65;63.81 -->26/03/24 10:49:02*;
MES=0.00; ; ; ; V/m; 3.62V; $GPRMC,144902.000,A,1427.1000,S,05648.9152,W,20.65,95.72,260324,,,A*63;;29.00;-74.00;-59.00;28.65;63.81 -->26/03/24 10:49:02*;
MES=0.00; ; ; ; V/m; 3.62V; $GPRMC,144902.000,A,1427.1000,S,05648.9152,W,20.65,95.72,260324,,,A*63;;-102.00;166.00;-27.00;28.65;63.81 -->26/03/24 10:49:02*;
MES=0.52; ; ; ; V/m; 3.62V; $GPRMC,144902.000,A,1427.1000,S,05648.9152,W,20.65,95.72,260324,,,A*63;;11.00;22.00;-31.00;28.65;63.81 -->26/03/24 10:49:03*;
MES=0.00; ; ; ; V/m; 3.62V; $GPRMC,144903.000,A,1427.1006,S,05648.9094,W,20.58,95.92,260324,,,A*6F;;101.00;-51.00;53.00;28.65;63.81 -->26/03/24 10:49:03*;
MES=0.00; ; ; ; V/m; 3.62V; $GPRMC,144903.000,A,1427.1006,S,05648.9094,W,20.58,95.92,260324,,,A*6F;;-101.00;20.00;-54.00;28.65;63.81 -->26/03/24 10:49:03*;
MES=0.00; ; ; ; V/m; 3.62V; $GPRMC,144903.000,A,1427.1006,S,05648.9094,W,20.58,95.92,260324,,,A*6F;;38.00;30.00;48.00;28.65;63.81 -->26/03/24 10:49:04*;
MES=0.00; ; ; ; V/m; 3.61V; $GPRMC,144904.000,A,1427.1012,S,05648.9036,W,20.63,95.17,260324,,,A*60;;-6.00;-65.00;-11.00;28.65;63.81 -->26/03/24 10:49:04*;
MES=0.20; ; ; ; V/m; 3.61V; $GPRMC,144904.000,A,1427.1012,S,05648.9036,W,20.63,95.17,260324,,,A*60;;59.00;-17.00;-7.00;28.65;63.81 -->26/03/24 10:49:04*;
MES=0.23; ; ; ; V/m; 3.61V; $GPRMC,144904.000,A,1427.1012,S,05648.9036,W,20.63,95.17,260324,,,A*60;;-19.00;6.00;16.00;28.65;63.81 -->26/03/24 10:49:04*;
MES=0.23; ; ; ; V/m; 3.61V; $GPRMC,144904.000,A,1427.1012,S,05648.9036,W,20.63,95.17,260324,,,A*60;;-55.00;45.00;-47.00;28.65;63.81 -->26/03/24 10:49:05*;
MES=0.34; ; ; ; V/m; 3.61V; $GPRMC,144905.000,A,1427.1017,S,05648.8978,W,20.39,95.20,260324,,,A*6D;;27.00;20.00;-16.00;28.65;63.81 -->26/03/24 10:49:05*;
MES=0.14; ; ; ; V/m; 3.61V; $GPRMC,144905.000,A,1427.1017,S,05648.8978,W,20.39,95.20,260324,,,A*6D;;-23.00;14.00;72.00;28.65;63.81 -->26/03/24 10:49:05*;
MES=0.00; ; ; ; V/m; 3.61V; $GPRMC,144905.000,A,1427.1017,S,05648.8978,W,20.39,95.20,260324,,,A*6D;;25.00;-108.00;-65.00;28.65;63.81 -->26/03/24 10:49:05*;
MES=0.00; ; ; ; V/m; 3.61V; $GPRMC,144905.000,A,1427.1017,S,05648.8978,W,20.39,95.20,260324,,,A*6D;;-14.00;24.00;48.00;28.65;63.81 -->26/03/24 10:49:06*;
MES=0.00; ; ; ; V/m; 3.61V; $GPRMC,144906.000,A,1427.1022,S,05648.8921,W,20.16,95.40,260324,,,A*6F;;35.00;44.00;-38.00;28.65;63.81 -->26/03/24 10:49:06*;
MES=0.41; ; ; ; V/m; 3.61V; $GPRMC,144906.000,A,1427.1022,S,05648.8921,W,20.16,95.40,260324,,,A*6F;;-150.00;-28.00;-13.00;28.65;63.81 -->26/03/24 10:49:06*;
MES=0.37; ; ; ; V/m; 3.61V; $GPRMC,144906.000,A,1427.1022,S,05648.8921,W,20.16,95.40,260324,,,A*6F;;210.00;65.00;19.00;28.65;63.81 -->26/03/24 10:49:07*;
MES=0.37; ; ; ; V/m; 3.61V; $GPRMC,144907.000,A,1427.1026,S,05648.8863,W,20.22,94.91,260324,,,A*67;;-63.00;-83.00;6.00;28.65;63.81 -->26/03/24 10:49:07*;
MES=0.48; ; ; ; V/m; 3.61V; $GPRMC,144907.000,A,1427.1026,S,05648.8863,W,20.22,94.91,260324,,,A*67;;-37.00;38.00;33.00;28.65;63.81 -->26/03/24 10:49:07*;
MES=0.32; ; ; ; V/m; 3.61V; $GPRMC,144907.000,A,1427.1026,S,05648.8863,W,20.22,94.91,260324,,,A*67;;37.00;26.00;-60.00;28.65;63.81 -->26/03/24 10:49:07*;
MES=0.14; ; ; ; V/m; 3.61V; $GPRMC,144907.000,A,1427.1026,S,05648.8863,W,20.22,94.91,260324,,,A*67;;-32.00;-43.00;2.00;28.65;63.81 -->26/03/24 10:49:08*;
MES=0.00; ; ; ; V/m; 3.61V; $GPRMC,144908.000,A,1427.1031,S,05648.8805,W,20.60,95.22,260324,,,A*61;;0.00;45.00;53.00;28.65;63.81 -->26/03/24 10:49:08*;
MES=0.00; ; ; ; V/m; 3.61V; $GPRMC,144908.000,A,1427.1031,S,05648.8805,W,20.60,95.22,260324,,,A*61;;46.00;4.00;-65.00;28.65;63.81 -->26/03/24 10:49:08*;
MES=0.00; ; ; ; V/m; 3.61V; $GPRMC,144908.000,A,1427.1031,S,05648.8805,W,20.60,95.22,260324,,,A*61;;-34.00;-90.00;105.00;28.65;63.81 -->26/03/24 10:49:08*;
MES=0.22; ; ; ; V/m; 3.61V; $GPRMC,144908.000,A,1427.1031,S,05648.8805,W,20.60,95.22,260324,,,A*61;;22.00;-10.00;-12.00;28.65;63.81 -->26/03/24 10:49:09*;
MES=0.22; ; ; ; V/m; 3.61V; $GPRMC,144909.000,A,1427.1036,S,05648.8746,W,20.53,95.39,260324,,,A*65;;-19.00;122.00;-112.00;28.65;63.81 -->26/03/24 10:49:09*;
MES=0.24; ; ; ; V/m; 3.61V; $GPRMC,144909.000,A,1427.1036,S,05648.8746,W,20.53,95.39,260324,,,A*65;;38.00;-55.00;79.00;28.65;63.81 -->26/03/24 10:49:09*;
MES=0.26; ; ; ; V/m; 3.61V; $GPRMC,144909.000,A,1427.1036,S,05648.8746,W,20.53,95.39,260324,,,A*65;;0.00;9.00;15.00;28.65;63.81 -->26/03/24 10:49:10*;
MES=0.39; ; ; ; V/m; 3.61V; $GPRMC,144909.000,A,1427.1036,S,05648.8746,W,20.53,95.39,260324,,,A*65;;-8.00;-49.00;-29.00;28.65;63.81 -->26/03/24 10:49:10*;
MES=0.37; ; ; ; V/m; 3.61V; $GPRMC,144910.000,A,1427.1042,S,05648.8689,W,20.17,95.62,260324,,,A*62;;-63.00;-57.00;29.00;28.65;63.81 -->26/03/24 10:49:10*;
MES=0.37; ; ; ; V/m; 3.61V; $GPRMC,144910.000,A,1427.1042,S,05648.8689,W,20.17,95.62,260324,,,A*62;;26.00;134.00;34.00;28.65;63.81 -->26/03/24 10:49:10*;
MES=0.24; ; ; ; V/m; 3.61V; $GPRMC,144910.000,A,1427.1042,S,05648.8689,W,20.17,95.62,260324,,,A*62;;86.00;-48.00;-133.00;28.65;63.81 -->26/03/24 10:49:11*;
MES=0.11; ; ; ; V/m; 3.61V; $GPRMC,144911.000,A,1427.1048,S,05648.8632,W,19.99,95.37,260324,,,A*65;;-144.00;-22.00;47.00;28.65;63.81 -->26/03/24 10:49:11*;
MES=0.00; ; ; ; V/m; 3.61V; $GPRMC,144911.000,A,1427.1048,S,05648.8632,W,19.99,95.37,260324,,,A*65;;42.00;2.00;144.00;28.65;63.81 -->26/03/24 10:49:11*;
MES=0.00; ; ; ; V/m; 3.61V; $GPRMC,144911.000,A,1427.1048,S,05648.8632,W,19.99,95.37,260324,,,A*65;;1.00;-39.00;-88.00;28.65;63.81 -->26/03/24 10:49:11*;
MES=0.00; ; ; ; V/m; 3.61V; $GPRMC,144911.000,A,1427.1048,S,05648.8632,W,19.99,95.37,260324,,,A*65;;21.00;34.00;-4.00;28.65;63.81 -->26/03/24 10:49:12*;
MES=0.00; ; ; ; V/m; 3.61V; $GPRMC,144912.000,A,1427.1053,S,05648.8575,W,19.96,95.42,260324,,,A*61;;23.00;95.00;-57.00;28.65;63.81 -->26/03/24 10:49:12*;
MES=0.00; ; ; ; V/m; 3.61V; $GPRMC,144912.000,A,1427.1053,S,05648.8575,W,19.96,95.42,260324,,,A*61;;-14.00;-84.00;66.00;28.65;63.81 -->26/03/24 10:49:12*;
MES=0.00; ; ; ; V/m; 3.61V; $GPRMC,144912.000,A,1427.1053,S,05648.8575,W,19.96,95.42,260324,,,A*61;;59.00;99.00;47.00;28.65;63.81 -->26/03/24 10:49:12*;
MES=0.00; ; ; ; V/m; 3.61V; $GPRMC,144912.000,A,1427.1053,S,05648.8575,W,19.96,95.42,260324,,,A*61;;-21.00;-101.00;-73.00;28.65;63.81 -->26/03/24 10:49:13*;
MES=0.00; ; ; ; V/m; 3.61V; $GPRMC,144913.000,A,1427.1058,S,05648.8517,W,19.97,95.01,260324,,,A*69;;-89.00;79.00;91.00;28.65;63.81 -->26/03/24 10:49:13*;
MES=0.00; ; ; ; V/m; 3.61V; $GPRMC,144913.000,A,1427.1058,S,05648.8517,W,19.97,95.01,260324,,,A*69;;30.00;-54.00;-13.00;28.65;63.81 -->26/03/24 10:49:13*;
MES=0.35; ; ; ; V/m; 3.61V; $GPRMC,144913.000,A,1427.1058,S,05648.8517,W,19.97,95.01,260324,,,A*69;;25.00;0.00;-67.00;28.65;63.81 -->26/03/24 10:49:14*;
MES=0.33; ; ; ; V/m; 3.61V; $GPRMC,144914.000,A,1427.1061,S,05648.8462,W,18.87,93.93,260324,,,A*6A;;-25.00;-2.00;-38.00;28.65;63.81 -->26/03/24 10:49:14*;
MES=0.14; ; ; ; V/m; 3.61V; $GPRMC,144914.000,A,1427.1061,S,05648.8462,W,18.87,93.93,260324,,,A*6A;;-15.00;4.00;85.00;28.65;63.81 -->26/03/24 10:49:14*;
MES=0.00; ; ; ; V/m; 3.61V; $GPRMC,144914.000,A,1427.1061,S,05648.8462,W,18.87,93.93,260324,,,A*6A;;7.00;56.00;-34.00;28.65;63.81 -->26/03/24 10:49:14*;
MES=0.00; ; ; ; V/m; 3.61V; $GPRMC,144914.000,A,1427.1061,S,05648.8462,W,18.87,93.93,260324,,,A*6A;;71.00;-54.00;-12.00;28.65;63.81 -->26/03/24 10:49:15*;
MES=0.00; ; ; ; V/m; 3.61V; $GPRMC,144915.000,A,1427.1064,S,05648.8411,W,16.58,92.82,260324,,,A*67;;-65.00;38.00;-5.00;28.65;63.81 -->26/03/24 10:49:15*;
MES=0.00; ; ; ; V/m; 3.61V; $GPRMC,144915.000,A,1427.1064,S,05648.8411,W,16.58,92.82,260324,,,A*67;;34.00;-73.00;30.00;28.65;63.81 -->26/03/24 10:49:15*;
MES=0.00; ; ; ; V/m; 3.61V; $GPRMC,144915.000,A,1427.1064,S,05648.8411,W,16.58,92.82,260324,,,A*67;;4.00;-7.00;-43.00;28.65;63.81 -->26/03/24 10:49:15*;
MES=0.00; ; ; ; V/m; 3.61V; $GPRMC,144915.000,A,1427.1064,S,05648.8411,W,16.58,92.82,260324,,,A*67;;-70.00;58.00;31.00;28.65;63.81 -->26/03/24 10:49:16*;
MES=0.00; ; ; ; V/m; 3.61V; $GPRMC,144916.000,A,1427.1066,S,05648.8366,W,15.13,93.12,260324,,,A*65;;64.00;-70.00;6.00;28.65;63.81 -->26/03/24 10:49:16*;
MES=0.23; ; ; ; V/m; 3.61V; $GPRMC,144916.000,A,1427.1066,S,05648.8366,W,15.13,93.12,260324,,,A*65;;-8.00;43.00;-14.00;28.65;63.81 -->26/03/24 10:49:16*;
MES=0.23; ; ; ; V/m; 3.61V; $GPRMC,144916.000,A,1427.1066,S,05648.8366,W,15.13,93.12,260324,,,A*65;;-45.00;26.00;-53.00;28.65;63.81 -->26/03/24 10:49:17*;
MES=0.26; ; ; ; V/m; 3.61V; $GPRMC,144917.000,A,1427.1067,S,05648.8322,W,15.14,91.22,260324,,,A*63;;13.00;-101.00;128.00;28.65;63.81 -->26/03/24 10:49:17*;
MES=0.33; ; ; ; V/m; 3.61V; $GPRMC,144917.000,A,1427.1067,S,05648.8322,W,15.14,91.22,260324,,,A*63;;-2.00;154.00;-114.00;28.65;63.81 -->26/03/24 10:49:17*;
MES=0.24; ; ; ; V/m; 3.61V; $GPRMC,144917.000,A,1427.1067,S,05648.8322,W,15.14,91.22,260324,,,A*63;;22.00;0.00;75.00;28.65;63.81 -->26/03/24 10:49:17*;
MES=0.24; ; ; ; V/m; 3.61V; $GPRMC,144917.000,A,1427.1067,S,05648.8322,W,15.14,91.22,260324,,,A*63;;31.00;-111.00;-93.00;28.65;63.81 -->26/03/24 10:49:18*;
MES=0.35; ; ; ; V/m; 3.61V; $GPRMC,144918.000,A,1427.1067,S,05648.8280,W,14.76,88.74,260324,,,A*6B;;-13.00;109.00;-18.00;28.65;63.81 -->26/03/24 10:49:18*;
MES=0.37; ; ; ; V/m; 3.61V; $GPRMC,144918.000,A,1427.1067,S,05648.8280,W,14.76,88.74,260324,,,A*6B;;-46.00;-73.00;87.00;28.65;63.81 -->26/03/24 10:49:18*;
MES=0.31; ; ; ; V/m; 3.61V; $GPRMC,144918.000,A,1427.1067,S,05648.8280,W,14.76,88.74,260324,,,A*6B;;27.00;11.00;-77.00;28.65;63.81 -->26/03/24 10:49:18*;
MES=0.22; ; ; ; V/m; 3.61V; $GPRMC,144918.000,A,1427.1067,S,05648.8280,W,14.76,88.74,260324,,,A*6B;;23.00;-11.00;31.00;28.65;63.81 -->26/03/24 10:49:19*;
MES=0.22; ; ; ; V/m; 3.61V; $GPRMC,144919.000,A,1427.1066,S,05648.8238,W,13.90,88.81,260324,,,A*6D;;-24.00;-1.00;13.00;28.65;63.81 -->26/03/24 10:49:19*;
MES=0.16; ; ; ; V/m; 3.61V; $GPRMC,144919.000,A,1427.1066,S,05648.8238,W,13.90,88.81,260324,,,A*6D;;34.00;4.00;-40.00;28.65;63.81 -->26/03/24 10:49:19*;
MES=0.00; ; ; ; V/m; 3.61V; $GPRMC,144919.000,A,1427.1066,S,05648.8238,W,13.90,88.81,260324,,,A*6D;;4.00;-33.00;28.00;28.65;63.81 -->26/03/24 10:49:20*;
MES=0.00; ; ; ; V/m; 3.61V; $GPRMC,144920.000,A,1427.1066,S,05648.8198,W,14.53,89.07,260324,,,A*69;;-13.00;110.00;-70.00;28.65;63.81 -->26/03/24 10:49:20*;
MES=0.00; ; ; ; V/m; 3.61V; $GPRMC,144920.000,A,1427.1066,S,05648.8198,W,14.53,89.07,260324,,,A*69;;-17.00;-73.00;63.00;28.65;63.81 -->26/03/24 10:49:20*;
MES=0.00; ; ; ; V/m; 3.61V; $GPRMC,144920.000,A,1427.1066,S,05648.8198,W,14.53,89.07,260324,,,A*69;;-15.00;-13.00;-23.00;28.65;63.81 -->26/03/24 10:49:20*;
MES=0.00; ; ; ; V/m; 3.61V; $GPRMC,144920.000,A,1427.1066,S,05648.8198,W,14.53,89.07,260324,,,A*69;;23.00;69.00;14.00;28.65;63.81 -->26/03/24 10:49:21*;
MES=0.00; ; ; ; V/m; 3.61V; $GPRMC,144921.000,A,1427.1066,S,05648.8155,W,15.21,90.99,260324,,,A*62;;-37.00;-63.00;21.00;28.65;63.81 -->26/03/24 10:49:21*;
MES=0.00; ; ; ; V/m; 3.61V; $GPRMC,144921.000,A,1427.1066,S,05648.8155,W,15.21,90.99,260324,,,A*62;;-8.00;39.00;-18.00;28.65;63.81 -->26/03/24 10:49:21*;
MES=0.00; ; ; ; V/m; 3.61V; $GPRMC,144921.000,A,1427.1066,S,05648.8155,W,15.21,90.99,260324,,,A*62;;53.00;52.00;-61.00;28.65;63.81 -->26/03/24 10:49:21*;
MES=0.00; ; ; ; V/m; 3.61V; $GPRMC,144921.000,A,1427.1066,S,05648.8155,W,15.21,90.99,260324,,,A*62;;47.00;-54.00;58.00;28.65;63.81 -->26/03/24 10:49:22*;
MES=0.00; ; ; ; V/m; 3.61V; $GPRMC,144922.000,A,1427.1067,S,05648.8111,W,15.26,93.03,260324,,,A*67;;-21.00;-20.00;-33.00;28.65;63.81 -->26/03/24 10:49:22*;
MES=0.00; ; ; ; V/m; 3.61V; $GPRMC,144922.000,A,1427.1067,S,05648.8111,W,15.26,93.03,260324,,,A*67;;-55.00;-4.00;102.00;28.65;63.81 -->26/03/24 10:49:22*;
MES=0.00; ; ; ; V/m; 3.61V; $GPRMC,144922.000,A,1427.1067,S,05648.8111,W,15.26,93.03,260324,,,A*67;;10.00;-17.00;-87.00;28.65;63.81 -->26/03/24 10:49:23*;
MES=0.00; ; ; ; V/m; 3.61V; $GPRMC,144923.000,A,1427.1069,S,05648.8069,W,15.05,96.07,260324,,,A*66;;8.00;69.00;80.00;28.65;63.81 -->26/03/24 10:49:23*;
MES=0.00; ; ; ; V/m; 3.61V; $GPRMC,144923.000,A,1427.1069,S,05648.8069,W,15.05,96.07,260324,,,A*66;;-13.00;0.00;-119.00;28.65;63.81 -->26/03/24 10:49:23*;
MES=0.00; ; ; ; V/m; 3.61V; $GPRMC,144923.000,A,1427.1069,S,05648.8069,W,15.05,96.07,260324,,,A*66;;36.00;-23.00;71.00;28.65;63.81 -->26/03/24 10:49:23*;
MES=0.21; ; ; ; V/m; 3.61V; $GPRMC,144923.000,A,1427.1069,S,05648.8069,W,15.05,96.07,260324,,,A*66;;-75.00;61.00;61.00;28.65;63.81 -->26/03/24 10:49:24*;
MES=0.23; ; ; ; V/m; 3.61V; $GPRMC,144924.000,A,1427.1074,S,05648.8030,W,12.88,97.32,260324,,,A*64;;96.00;-36.00;-175.00;28.65;63.81 -->26/03/24 10:49:24*;
MES=0.24; ; ; ; V/m; 3.61V; $GPRMC,144924.000,A,1427.1074,S,05648.8030,W,12.88,97.32,260324,,,A*64;;-91.00;-27.00;213.00;28.65;63.81 -->26/03/24 10:49:24*;
MES=0.22; ; ; ; V/m; 3.61V; $GPRMC,144924.000,A,1427.1074,S,05648.8030,W,12.88,97.32,260324,,,A*64;;36.00;-5.00;-56.00;28.65;63.81 -->26/03/24 10:49:24*;
MES=0.12; ; ; ; V/m; 3.61V; $GPRMC,144924.000,A,1427.1074,S,05648.8030,W,12.88,97.32,260324,,,A*64;;-4.00;45.00;4.00;28.65;63.81 -->26/03/24 10:49:25*;
MES=0.00; ; ; ; V/m; 3.61V; $GPRMC,144925.000,A,1427.1079,S,05648.7993,W,12.71,98.05,260324,,,A*6A;;24.00;-99.00;53.00;28.65;63.81 -->26/03/24 10:49:25*;
MES=0.00; ; ; ; V/m; 3.61V; $GPRMC,144925.000,A,1427.1079,S,05648.7993,W,12.71,98.05,260324,,,A*6A;;11.00;3.00;-25.00;28.65;63.81 -->26/03/24 10:49:25*;
MES=0.00; ; ; ; V/m; 3.61V; $GPRMC,144925.000,A,1427.1079,S,05648.7993,W,12.71,98.05,260324,,,A*6A;;-82.00;14.00;-38.00;28.65;63.81 -->26/03/24 10:49:26*;
MES=0.21; ; ; ; V/m; 3.61V; $GPRMC,144925.000,A,1427.1079,S,05648.7993,W,12.71,98.05,260324,,,A*6A;;65.00;-21.00;36.00;28.65;63.81 -->26/03/24 10:49:26*;
MES=0.23; ; ; ; V/m; 3.61V; $GPRMC,144926.000,A,1427.1083,S,05648.7959,W,11.15,95.96,260324,,,A*6C;;-28.00;-46.00;21.00;28.65;63.81 -->26/03/24 10:49:26*;
MES=0.24; ; ; ; V/m; 3.61V; $GPRMC,144926.000,A,1427.1083,S,05648.7959,W,11.15,95.96,260324,,,A*6C;;21.00;99.00;1.00;28.65;63.81 -->26/03/24 10:49:26*;
MES=0.22; ; ; ; V/m; 3.61V; $GPRMC,144926.000,A,1427.1083,S,05648.7959,W,11.15,95.96,260324,,,A*6C;;9.00;-63.00;-11.00;28.65;63.81 -->26/03/24 10:49:27*;
MES=0.22; ; ; ; V/m; 3.61V; $GPRMC,144927.000,A,1427.1083,S,05648.7930,W,9.72,84.42,260324,,,A*53;;-45.00;50.00;6.00;28.65;63.81 -->26/03/24 10:49:27*;
MES=0.25; ; ; ; V/m; 3.61V; $GPRMC,144927.000,A,1427.1083,S,05648.7930,W,9.72,84.42,260324,,,A*53;;31.00;-31.00;13.00;28.65;63.81 -->26/03/24 10:49:27*;
MES=0.25; ; ; ; V/m; 3.61V; $GPRMC,144927.000,A,1427.1083,S,05648.7930,W,9.72,84.42,260324,,,A*53;;7.00;-80.00;-1.00;28.65;63.81 -->26/03/24 10:49:27*;
MES=0.13; ; ; ; V/m; 3.61V; $GPRMC,144927.000,A,1427.1083,S,05648.7930,W,9.72,84.42,260324,,,A*53;;17.00;83.00;-45.00;28.65;63.81 -->26/03/24 10:49:28*;
MES=0.00; ; ; ; V/m; 3.61V; $GPRMC,144928.000,A,1427.1077,S,05648.7908,W,7.90,65.92,260324,,,A*5C;;-18.00;25.00;54.00;28.65;63.81 -->26/03/24 10:49:28*;
MES=0.00; ; ; ; V/m; 3.61V; $GPRMC,144928.000,A,1427.1077,S,05648.7908,W,7.90,65.92,260324,,,A*5C;;-13.00;-58.00;-23.00;28.65;63.81 -->26/03/24 10:49:28*;
MES=0.00; ; ; ; V/m; 3.61V; $GPRMC,144928.000,A,1427.1077,S,05648.7908,W,7.90,65.92,260324,,,A*5C;;23.00;-10.00;-23.00;28.65;63.81 -->26/03/24 10:49:28*;
MES=0.00; ; ; ; V/m; 3.61V; $GPRMC,144928.000,A,1427.1077,S,05648.7908,W,7.90,65.92,260324,,,A*5C;;-21.00;-44.00;18.00;28.65;63.81 -->26/03/24 10:49:29*;
MES=0.00; ; ; ; V/m; 3.61V; $GPRMC,144929.000,A,1427.1066,S,05648.7891,W,7.32,47.84,260324,,,A*53;;-43.00;-11.00;11.00;28.65;63.81 -->26/03/24 10:49:29*;
MES=0.21; ; ; ; V/m; 3.61V; $GPRMC,144929.000,A,1427.1066,S,05648.7891,W,7.32,47.84,260324,,,A*53;;-3.00;6.00;-77.00;28.65;63.81 -->26/03/24 10:49:29*;
MES=0.21; ; ; ; V/m; 3.61V; $GPRMC,144929.000,A,1427.1066,S,05648.7891,W,7.32,47.84,260324,,,A*53;;51.00;-64.00;130.00;28.65;63.81 -->26/03/24 10:49:30*;
MES=0.28; ; ; ; V/m; 3.61V; $GPRMC,144930.000,A,1427.1049,S,05648.7878,W,8.15,28.78,260324,,,A*51;;-9.00;142.00;-154.00;28.65;63.81 -->26/03/24 10:49:30*;
MES=0.12; ; ; ; V/m; 3.61V; $GPRMC,144930.000,A,1427.1049,S,05648.7878,W,8.15,28.78,260324,,,A*51;;14.00;-105.00;146.00;28.65;63.81 -->26/03/24 10:49:30*;
MES=0.00; ; ; ; V/m; 3.61V; $GPRMC,144930.000,A,1427.1049,S,05648.7878,W,8.15,28.78,260324,,,A*51;;-51.00;161.00;-209.00;28.65;63.81 -->26/03/24 10:49:30*;
MES=0.00; ; ; ; V/m; 3.61V; $GPRMC,144930.000,A,1427.1049,S,05648.7878,W,8.15,28.78,260324,,,A*51;;32.00;-113.00;157.00;28.65;63.81 -->26/03/24 10:49:31*;
MES=0.21; ; ; ; V/m; 3.61V; $GPRMC,144931.000,A,1427.1025,S,05648.7869,W,9.80,17.61,260324,,,A*53;;-10.00;41.00;-111.00;28.65;63.81 -->26/03/24 10:49:31*;
MES=0.21; ; ; ; V/m; 3.61V; $GPRMC,144931.000,A,1427.1025,S,05648.7869,W,9.80,17.61,260324,,,A*53;;-14.00;132.00;-46.00;28.65;63.81 -->26/03/24 10:49:31*;
MES=0.25; ; ; ; V/m; 3.61V; $GPRMC,144931.000,A,1427.1025,S,05648.7869,W,9.80,17.61,260324,,,A*53;;19.00;-76.00;70.00;28.65;63.81 -->26/03/24 10:49:31*;
MES=0.22; ; ; ; V/m; 3.61V; $GPRMC,144931.000,A,1427.1025,S,05648.7869,W,9.80,17.61,260324,,,A*53;;83.00;-88.00;12.00;28.65;63.81 -->26/03/24 10:49:32*;
MES=0.22; ; ; ; V/m; 3.61V; $GPRMC,144932.000,A,1427.0996,S,05648.7865,W,11.12,8.36,260324,,,A*52;;-41.00;90.00;-43.00;28.65;63.81 -->26/03/24 10:49:32*;
MES=0.22; ; ; ; V/m; 3.61V; $GPRMC,144932.000,A,1427.0996,S,05648.7865,W,11.12,8.36,260324,,,A*52;;-36.00;-120.00;-48.00;28.65;63.81 -->26/03/24 10:49:32*;
MES=0.22; ; ; ; V/m; 3.61V; $GPRMC,144932.000,A,1427.0996,S,05648.7865,W,11.12,8.36,260324,,,A*52;;-3.00;122.00;26.00;28.65;63.81 -->26/03/24 10:49:33*;
MES=0.31; ; ; ; V/m; 3.61V; $GPRMC,144933.000,A,1427.0964,S,05648.7863,W,11.45,5.13,260324,,,A*50;;11.00;-21.00;128.00;28.65;63.81 -->26/03/24 10:49:33*;
MES=0.19; ; ; ; V/m; 3.61V; $GPRMC,144933.000,A,1427.0964,S,05648.7863,W,11.45,5.13,260324,,,A*50;;14.00;21.00;-135.00;28.65;63.81 -->26/03/24 10:49:33*;
MES=0.19; ; ; ; V/m; 3.61V; $GPRMC,144933.000,A,1427.0964,S,05648.7863,W,11.45,5.13,260324,,,A*50;;37.00;-115.00;171.00;28.65;63.81 -->26/03/24 10:49:33*;
MES=0.21; ; ; ; V/m; 3.61V; $GPRMC,144933.000,A,1427.0964,S,05648.7863,W,11.45,5.13,260324,,,A*50;;-30.00;56.00;-114.00;28.65;63.81 -->26/03/24 10:49:34*;
MES=0.15; ; ; ; V/m; 3.61V; $GPRMC,144934.000,A,1427.0932,S,05648.7861,W,11.74,5.22,260324,,,A*56;;-41.00;-13.00;105.00;28.65;63.81 -->26/03/24 10:49:34*;
MES=0.00; ; ; ; V/m; 3.61V; $GPRMC,144934.000,A,1427.0932,S,05648.7861,W,11.74,5.22,260324,,,A*56;;38.00;47.00;-134.00;28.65;63.81 -->26/03/24 10:49:34*;
MES=0.00; ; ; ; V/m; 3.61V; $GPRMC,144934.000,A,1427.0932,S,05648.7861,W,11.74,5.22,260324,,,A*56;;2.00;26.00;-2.00;28.65;63.81 -->26/03/24 10:49:34*;
MES=0.00; ; ; ; V/m; 3.61V; $GPRMC,144934.000,A,1427.0932,S,05648.7861,W,11.74,5.22,260324,,,A*56;;20.00;-55.00;19.00;28.65;63.81 -->26/03/24 10:49:35*;
MES=0.00; ; ; ; V/m; 3.61V; $GPRMC,144935.000,A,1427.0897,S,05648.7859,W,12.70,5.60,260324,,,A*53;;-7.00;-1.00;65.00;28.65;63.81 -->26/03/24 10:49:35*;
MES=0.00; ; ; ; V/m; 3.61V; $GPRMC,144935.000,A,1427.0897,S,05648.7859,W,12.70,5.60,260324,,,A*53;;38.00;-37.00;-23.00;28.65;63.81 -->26/03/24 10:49:35*;
MES=0.00; ; ; ; V/m; 3.61V; $GPRMC,144935.000,A,1427.0897,S,05648.7859,W,12.70,5.60,260324,,,A*53;;-50.00;117.00;-88.00;28.65;63.81 -->26/03/24 10:49:36*;
MES=0.00; ; ; ; V/m; 3.60V; $GPRMC,144936.000,A,1427.0860,S,05648.7855,W,13.39,7.38,260324,,,A*57;;1.00;-43.00;50.00;28.65;63.81 -->26/03/24 10:49:36*;
MES=0.00; ; ; ; V/m; 3.60V; $GPRMC,144936.000,A,1427.0860,S,05648.7855,W,13.39,7.38,260324,,,A*57;;4.00;38.00;-4.00;28.65;63.81 -->26/03/24 10:49:36*;
MES=0.22; ; ; ; V/m; 3.60V; $GPRMC,144936.000,A,1427.0860,S,05648.7855,W,13.39,7.38,260324,,,A*57;;-48.00;-128.00;107.00;28.65;63.81 -->26/03/24 10:49:36*;
MES=0.22; ; ; ; V/m; 3.60V; $GPRMC,144936.000,A,1427.0860,S,05648.7855,W,13.39,7.38,260324,,,A*57;;91.00;86.00;-115.00;28.65;63.81 -->26/03/24 10:49:37*;
MES=0.21; ; ; ; V/m; 3.60V; $GPRMC,144937.000,A,1427.0822,S,05648.7852,W,13.95,7.26,260324,,,A*5E;;-43.00;54.00;-55.00;28.65;63.81 -->26/03/24 10:49:37*;
MES=0.21; ; ; ; V/m; 3.60V; $GPRMC,144937.000,A,1427.0822,S,05648.7852,W,13.95,7.26,260324,,,A*5E;;-48.00;-14.00;109.00;28.65;63.81 -->26/03/24 10:49:37*;
MES=0.23; ; ; ; V/m; 3.60V; $GPRMC,144937.000,A,1427.0822,S,05648.7852,W,13.95,7.26,260324,,,A*5E;;16.00;-31.00;41.00;28.65;63.81 -->26/03/24 10:49:37*;
MES=0.24; ; ; ; V/m; 3.60V; $GPRMC,144937.000,A,1427.0822,S,05648.7852,W,13.95,7.26,260324,,,A*5E;;55.00;-74.00;21.00;28.65;63.81 -->26/03/24 10:49:38*;
MES=0.24; ; ; ; V/m; 3.60V; $GPRMC,144938.000,A,1427.0783,S,05648.7848,W,13.94,6.99,260324,,,A*5A;;-77.00;131.00;-116.00;28.65;63.81 -->26/03/24 10:49:38*;
MES=0.22; ; ; ; V/m; 3.60V; $GPRMC,144938.000,A,1427.0783,S,05648.7848,W,13.94,6.99,260324,,,A*5A;;-10.00;-11.00;-6.00;28.65;63.81 -->26/03/24 10:49:38*;
MES=0.22; ; ; ; V/m; 3.60V; $GPRMC,144938.000,A,1427.0783,S,05648.7848,W,13.94,6.99,260324,,,A*5A;;29.00;-63.00;18.00;28.65;63.81 -->26/03/24 10:49:39*;
MES=0.26; ; ; ; V/m; 3.60V; $GPRMC,144939.000,A,1427.0745,S,05648.7844,W,13.26,4.30,260324,,,A*55;;8.00;16.00;39.00;28.65;63.81 -->26/03/24 10:49:39*;
MES=0.32; ; ; ; V/m; 3.60V; $GPRMC,144939.000,A,1427.0745,S,05648.7844,W,13.26,4.30,260324,,,A*55;;37.00;-51.00;-41.00;28.65;63.81 -->26/03/24 10:49:39*;
MES=0.26; ; ; ; V/m; 3.60V; $GPRMC,144939.000,A,1427.0745,S,05648.7844,W,13.26,4.30,260324,,,A*55;;-51.00;66.00;52.00;28.65;63.81 -->26/03/24 10:49:39*;
MES=0.26; ; ; ; V/m; 3.60V; $GPRMC,144939.000,A,1427.0745,S,05648.7844,W,13.26,4.30,260324,,,A*55;;18.00;-29.00;-42.00;28.65;63.81 -->26/03/24 10:49:40*;
MES=0.30; ; ; ; V/m; 3.60V; $GPRMC,144940.000,A,1427.0709,S,05648.7841,W,12.34,5.86,260324,,,A*58;;-5.00;32.00;-23.00;28.65;63.81 -->26/03/24 10:49:40*;
MES=0.30; ; ; ; V/m; 3.60V; $GPRMC,144940.000,A,1427.0709,S,05648.7841,W,12.34,5.86,260324,,,A*58;;40.00;-123.00;106.00;28.65;63.81 -->26/03/24 10:49:40*;
MES=0.31; ; ; ; V/m; 3.60V; $GPRMC,144940.000,A,1427.0709,S,05648.7841,W,12.34,5.86,260324,,,A*58;;-43.00;81.00;-165.00;28.65;63.81 -->26/03/24 10:49:40*;
MES=0.16; ; ; ; V/m; 3.60V; $GPRMC,144940.000,A,1427.0709,S,05648.7841,W,12.34,5.86,260324,,,A*58;;23.00;-4.00;135.00;28.65;63.81 -->26/03/24 10:49:41*;
MES=0.00; ; ; ; V/m; 3.60V; $GPRMC,144941.000,A,1427.0674,S,05648.7837,W,12.68,7.06,260324,,,A*50;;-20.00;13.00;-15.00;28.65;63.81 -->26/03/24 10:49:41*;
MES=0.00; ; ; ; V/m; 3.60V; $GPRMC,144941.000,A,1427.0674,S,05648.7837,W,12.68,7.06,260324,,,A*50;;0.00;48.00;-120.00;28.65;63.81 -->26/03/24 10:49:41*;
MES=0.26; ; ; ; V/m; 3.60V; $GPRMC,144941.000,A,1427.0674,S,05648.7837,W,12.68,7.06,260324,,,A*50;;-23.00;109.00;-15.00;28.65;63.81 -->26/03/24 10:49:41*;
MES=0.28; ; ; ; V/m; 3.60V; $GPRMC,144941.000,A,1427.0674,S,05648.7837,W,12.68,7.06,260324,,,A*50;;31.00;-85.00;150.00;28.65;63.81 -->26/03/24 10:49:42*;
MES=0.36; ; ; ; V/m; 3.60V; $GPRMC,144942.000,A,1427.0639,S,05648.7833,W,12.66,6.88,260324,,,A*57;;-38.00;-124.00;29.00;28.65;63.81 -->26/03/24 10:49:42*;
MES=0.40; ; ; ; V/m; 3.60V; $GPRMC,144942.000,A,1427.0639,S,05648.7833,W,12.66,6.88,260324,,,A*57;;37.00;8.00;158.00;28.65;63.81 -->26/03/24 10:49:42*;
MES=0.13; ; ; ; V/m; 3.60V; $GPRMC,144942.000,A,1427.0639,S,05648.7833,W,12.66,6.88,260324,,,A*57;;23.00;38.00;-60.00;28.65;63.81 -->26/03/24 10:49:43*;
MES=0.00; ; ; ; V/m; 3.60V; $GPRMC,144943.000,A,1427.0604,S,05648.7829,W,12.05,7.28,260324,,,A*5D;;-60.00;-2.00;-98.00;28.65;63.81 -->26/03/24 10:49:43*;
MES=0.00; ; ; ; V/m; 3.60V; $GPRMC,144943.000,A,1427.0604,S,05648.7829,W,12.05,7.28,260324,,,A*5D;;40.00;115.00;-25.00;28.65;63.81 -->26/03/24 10:49:43*;
MES=0.00; ; ; ; V/m; 3.60V; $GPRMC,144943.000,A,1427.0604,S,05648.7829,W,12.05,7.28,260324,,,A*5D;;37.00;-203.00;34.00;28.65;63.81 -->26/03/24 10:49:43*;
MES=0.00; ; ; ; V/m; 3.60V; $GPRMC,144943.000,A,1427.0604,S,05648.7829,W,12.05,7.28,260324,,,A*5D;;-68.00;34.00;-71.00;28.65;63.81 -->26/03/24 10:49:44*;
MES=0.34; ; ; ; V/m; 3.60V; $GPRMC,144944.000,A,1427.0574,S,05648.7826,W,9.44,7.51,260324,,,A*60;;183.00;48.00;158.00;28.65;63.81 -->26/03/24 10:49:44*;
MES=0.23; ; ; ; V/m; 3.60V; $GPRMC,144944.000,A,1427.0574,S,05648.7826,W,9.44,7.51,260324,,,A*60;;-200.00;-12.00;-180.00;28.65;63.81 -->26/03/24 10:49:44*;
MES=0.23; ; ; ; V/m; 3.60V; $GPRMC,144944.000,A,1427.0574,S,05648.7826,W,9.44,7.51,260324,,,A*60;;4.00;18.00;10.00;28.65;63.81 -->26/03/24 10:49:44*;
MES=0.37; ; ; ; V/m; 3.60V; $GPRMC,144944.000,A,1427.0574,S,05648.7826,W,9.44,7.51,260324,,,A*60;;158.00;-44.00;-50.00;28.65;63.81 -->26/03/24 10:49:45*;
MES=0.35; ; ; ; V/m; 3.60V; $GPRMC,144945.000,A,1427.0551,S,05648.7824,W,7.16,7.37,260324,,,A*6D;;-211.00;10.00;30.00;28.65;63.81 -->26/03/24 10:49:45*;
MES=0.35; ; ; ; V/m; 3.60V; $GPRMC,144945.000,A,1427.0551,S,05648.7824,W,7.16,7.37,260324,,,A*6D;;168.00;-13.00;-94.00;28.65;63.81 -->26/03/24 10:49:45*;
MES=0.34; ; ; ; V/m; 3.60V; $GPRMC,144945.000,A,1427.0551,S,05648.7824,W,7.16,7.37,260324,,,A*6D;;-65.00;34.00;87.00;28.65;63.81 -->26/03/24 10:49:46*;
MES=0.31; ; ; ; V/m; 3.60V; $GPRMC,144946.000,A,1427.0532,S,05648.7822,W,7.10,7.17,260324,,,A*69;;3.00;-97.00;52.00;28.65;63.81 -->26/03/24 10:49:46*;
MES=0.24; ; ; ; V/m; 3.60V; $GPRMC,144946.000,A,1427.0532,S,05648.7822,W,7.10,7.17,260324,,,A*69;;-37.00;160.00;-139.00;28.65;63.81 -->26/03/24 10:49:46*;
MES=0.23; ; ; ; V/m; 3.60V; $GPRMC,144946.000,A,1427.0532,S,05648.7822,W,7.10,7.17,260324,,,A*69;;22.00;-79.00;106.00;28.65;63.81 -->26/03/24 10:49:46*;
MES=0.23; ; ; ; V/m; 3.60V; $GPRMC,144946.000,A,1427.0532,S,05648.7822,W,7.10,7.17,260324,,,A*69;;-5.00;-31.00;-12.00;28.65;63.81 -->26/03/24 10:49:47*;
MES=0.28; ; ; ; V/m; 3.60V; $GPRMC,144947.000,A,1427.0510,S,05648.7820,W,8.99,6.64,260324,,,A*61;;-32.00;17.00;-38.00;28.65;63.81 -->26/03/24 10:49:47*;
MES=0.28; ; ; ; V/m; 3.60V; $GPRMC,144947.000,A,1427.0510,S,05648.7820,W,8.99,6.64,260324,,,A*61;;47.00;32.00;57.00;28.65;63.81 -->26/03/24 10:49:47*;
MES=0.26; ; ; ; V/m; 3.60V; $GPRMC,144947.000,A,1427.0510,S,05648.7820,W,8.99,6.64,260324,,,A*61;;-9.00;49.00;-81.00;28.65;63.81 -->26/03/24 10:49:47*;
MES=0.26; ; ; ; V/m; 3.60V; $GPRMC,144947.000,A,1427.0510,S,05648.7820,W,8.99,6.64,260324,,,A*61;;-27.00;32.00;99.00;28.65;63.81 -->26/03/24 10:49:48*;
MES=0.33; ; ; ; V/m; 3.60V; $GPRMC,144948.000,A,1427.0483,S,05648.7817,W,10.45,7.05,260324,,,A*5F;;37.00;-90.00;-17.00;28.65;63.81 -->26/03/24 10:49:48*;
MES=0.33; ; ; ; V/m; 3.60V; $GPRMC,144948.000,A,1427.0483,S,05648.7817,W,10.45,7.05,260324,,,A*5F;;-69.00;48.00;25.00;28.65;63.81 -->26/03/24 10:49:48*;
MES=0.34; ; ; ; V/m; 3.60V; $GPRMC,144948.000,A,1427.0483,S,05648.7817,W,10.45,7.05,260324,,,A*5F;;29.00;14.00;-74.00;28.65;63.81 -->26/03/24 10:49:49*;
MES=0.23; ; ; ; V/m; 3.60V; $GPRMC,144949.000,A,1427.0453,S,05648.7814,W,11.08,6.89,260324,,,A*5D;;13.00;-3.00;138.00;28.65;63.81 -->26/03/24 10:49:49*;
MES=0.23; ; ; ; V/m; 3.60V; $GPRMC,144949.000,A,1427.0453,S,05648.7814,W,11.08,6.89,260324,,,A*5D;;5.00;7.00;-53.00;28.65;63.81 -->26/03/24 10:49:49*;
MES=0.30; ; ; ; V/m; 3.60V; $GPRMC,144949.000,A,1427.0453,S,05648.7814,W,11.08,6.89,260324,,,A*5D;;54.00;-41.00;-49.00;28.65;63.81 -->26/03/24 10:49:49*;
MES=0.30; ; ; ; V/m; 3.60V; $GPRMC,144949.000,A,1427.0453,S,05648.7814,W,11.08,6.89,260324,,,A*5D;;-83.00;58.00;-5.00;28.65;63.81 -->26/03/24 10:49:50*;
MES=0.36; ; ; ; V/m; 3.60V; $GPRMC,144950.000,A,1427.0422,S,05648.7811,W,10.71,7.29,260324,,,A*52;;65.00;-11.00;95.00;28.65;63.81 -->26/03/24 10:49:50*;
MES=0.40; ; ; ; V/m; 3.60V; $GPRMC,144950.000,A,1427.0422,S,05648.7811,W,10.71,7.29,260324,,,A*52;;-8.00;70.00;-167.00;28.65;63.81 -->26/03/24 10:49:50*;
MES=0.35; ; ; ; V/m; 3.60V; $GPRMC,144950.000,A,1427.0422,S,05648.7811,W,10.71,7.29,260324,,,A*52;;3.00;-88.00;66.00;28.65;63.81 -->26/03/24 10:49:50*;
MES=0.35; ; ; ; V/m; 3.60V; $GPRMC,144950.000,A,1427.0422,S,05648.7811,W,10.71,7.29,260324,,,A*52;;3.00;9.00;-65.00;28.65;63.81 -->26/03/24 10:49:51*;
MES=0.34; ; ; ; V/m; 3.60V; $GPRMC,144951.000,A,1427.0394,S,05648.7806,W,9.70,12.55,260324,,,A*59;;-8.00;13.00;57.00;28.65;63.81 -->26/03/24 10:49:51*;
